{"objects":[
{"circle":
{"coordinates": [31.7683190,35.2137100], "werk_id": "0001", "werk_titel": "Chronicon sive Gesta Saxonum", "quellen_id": "0001", "period_from": "965-01-01", "period_to": "969-12-31", "place": "Jerusalem", "auffaelligkeiten": ["Belagerung","Invasion","Vorzeichen"]}},
{"circle":
{"coordinates": [39.3087714,16.3463791], "werk_id": "0001", "werk_titel": "Chronicon sive Gesta Saxonum", "quellen_id": "0003", "period_from": "981-01-01", "period_to": "981-12-31", "place": "Kalabrien", "auffaelligkeiten": ["Kampfhandlung","Verlust","Rückschlag","Zerstörung"]}},
{"circle":
{"coordinates": [40.4643606,17.2470303], "werk_id": "0001", "werk_titel": "Chronicon sive Gesta Saxonum", "quellen_id": "0003", "period_from": "981-01-01", "period_to": "981-12-31", "place": "Tarent", "auffaelligkeiten": ["Kampfhandlung","Verlust","Rückschlag","Zerstörung"]}},
{"circle":
{"coordinates": [39.3087714,16.3463791], "werk_id": "0001", "werk_titel": "Chronicon sive Gesta Saxonum", "quellen_id": "0003", "period_from": "982-01-01", "period_to": "982-12-31", "place": "Kalabrien", "auffaelligkeiten": ["Kampfhandlung","Verlust","Rückschlag","Zerstörung"]}},
{"circle":
{"coordinates": [40.4643606,17.2470303], "werk_id": "0001", "werk_titel": "Chronicon sive Gesta Saxonum", "quellen_id": "0003", "period_from": "982-01-01", "period_to": "982-12-31", "place": "Tarent", "auffaelligkeiten": ["Kampfhandlung","Verlust","Rückschlag","Zerstörung"]}},
{"circle":
{"coordinates": [39.5763309,16.6342882], "werk_id": "0001", "werk_titel": "Chronicon sive Gesta Saxonum", "quellen_id": "0004", "period_from": "982-01-01", "period_to": "982-12-31", "place": "Rossano", "auffaelligkeiten": ["Rückschlag","Hilfe","Flotte"]}},
{"circle":
{"coordinates": [45.4790671,9.8452433], "werk_id": "0001", "werk_titel": "Chronicon sive Gesta Saxonum", "quellen_id": "0006", "period_from": "1016-01-01", "period_to": "1016-12-31", "place": "Lombardei", "auffaelligkeiten": ["Kampfhandlung","Bündnis","Bedrohung","Sieg","Vertreibung","Flucht","Flotte"]}},
{"circle":
{"coordinates": [44.06002,10.00590], "werk_id": "0001", "werk_titel": "Chronicon sive Gesta Saxonum", "quellen_id": "0006", "period_from": "1016-01-01", "period_to": "1016-12-31", "place": "Luna", "auffaelligkeiten": ["Kampfhandlung","Bündnis","Bedrohung","Sieg","Vertreibung","Flucht","Flotte"]}},
{"circle":
{"coordinates": [41.8719400,12.5673800], "werk_id": "0002", "werk_titel": "Destructio monasterii Farfensis", "quellen_id": "0001", "period_from": "897-01-01", "period_to": "897-12-31", "place": "Italien", "auffaelligkeiten": ["Bedrohung","Verwüstung","Plünderung","Zerfall","Invasion","Zerstörung"]}},
{"circle":
{"coordinates": [43.1588734,13.7200884], "werk_id": "0002", "werk_titel": "Destructio monasterii Farfensis", "quellen_id": "0001", "period_from": "897-01-01", "period_to": "897-12-31", "place": "Fermo", "auffaelligkeiten": ["Bedrohung","Verwüstung","Plünderung","Zerfall","Invasion","Zerstörung"]}},
{"circle":
{"coordinates": [41.8719400,12.5673800], "werk_id": "0002", "werk_titel": "Destructio monasterii Farfensis", "quellen_id": "0001", "period_from": "898-01-01", "period_to": "898-12-31", "place": "Italien", "auffaelligkeiten": ["Bedrohung","Verwüstung","Plünderung","Zerfall","Invasion","Zerstörung"]}},
{"circle":
{"coordinates": [43.1588734,13.7200884], "werk_id": "0002", "werk_titel": "Destructio monasterii Farfensis", "quellen_id": "0001", "period_from": "898-01-01", "period_to": "898-12-31", "place": "Fermo", "auffaelligkeiten": ["Bedrohung","Verwüstung","Plünderung","Zerfall","Invasion","Zerstörung"]}},
{"circle":
{"coordinates": [41.8719400,12.5673800], "werk_id": "0002", "werk_titel": "Destructio monasterii Farfensis", "quellen_id": "0001", "period_from": "919-01-01", "period_to": "919-12-31", "place": "Italien", "auffaelligkeiten": ["Bedrohung","Verwüstung","Plünderung","Zerfall","Invasion","Zerstörung"]}},
{"circle":
{"coordinates": [43.1588734,13.7200884], "werk_id": "0002", "werk_titel": "Destructio monasterii Farfensis", "quellen_id": "0001", "period_from": "919-01-01", "period_to": "919-12-31", "place": "Fermo", "auffaelligkeiten": ["Bedrohung","Verwüstung","Plünderung","Zerfall","Invasion","Zerstörung"]}},
{"circle":
{"coordinates": [41.8719400,12.5673800], "werk_id": "0002", "werk_titel": "Destructio monasterii Farfensis", "quellen_id": "0001", "period_from": "998-01-01", "period_to": "998-12-31", "place": "Italien", "auffaelligkeiten": ["Bedrohung","Verwüstung","Plünderung","Zerfall","Invasion","Zerstörung"]}},
{"circle":
{"coordinates": [43.1588734,13.7200884], "werk_id": "0002", "werk_titel": "Destructio monasterii Farfensis", "quellen_id": "0001", "period_from": "998-01-01", "period_to": "998-12-31", "place": "Fermo", "auffaelligkeiten": ["Bedrohung","Verwüstung","Plünderung","Zerfall","Invasion","Zerstörung"]}},
{"circle":
{"coordinates": [41.8719400,12.5673800], "werk_id": "0002", "werk_titel": "Destructio monasterii Farfensis", "quellen_id": "0001", "period_from": "999-01-01", "period_to": "999-12-31", "place": "Italien", "auffaelligkeiten": ["Bedrohung","Verwüstung","Plünderung","Zerfall","Invasion","Zerstörung"]}},
{"circle":
{"coordinates": [43.1588734,13.7200884], "werk_id": "0002", "werk_titel": "Destructio monasterii Farfensis", "quellen_id": "0001", "period_from": "999-01-01", "period_to": "999-12-31", "place": "Fermo", "auffaelligkeiten": ["Bedrohung","Verwüstung","Plünderung","Zerfall","Invasion","Zerstörung"]}},
{"circle":
{"coordinates": [41.8719400,12.5673800], "werk_id": "0002", "werk_titel": "Destructio monasterii Farfensis", "quellen_id": "0001", "period_from": "1000-01-01", "period_to": "1000-12-31", "place": "Italien", "auffaelligkeiten": ["Bedrohung","Verwüstung","Plünderung","Zerfall","Invasion","Zerstörung"]}},
{"circle":
{"coordinates": [43.1588734,13.7200884], "werk_id": "0002", "werk_titel": "Destructio monasterii Farfensis", "quellen_id": "0001", "period_from": "1000-01-01", "period_to": "1000-12-31", "place": "Fermo", "auffaelligkeiten": ["Bedrohung","Verwüstung","Plünderung","Zerfall","Invasion","Zerstörung"]}},
{"circle":
{"coordinates": [40.4636670,-3.7492200], "werk_id": "0003", "werk_titel": "Antapodosis", "quellen_id": "0001", "period_from": "895-01-01", "period_to": "905-12-31", "place": "Spanien", "auffaelligkeiten": ["Kampfhandlung","Plünderung","Invasion","Hilfe","Eroberung","Vertreibung","Flotte"]}},
{"circle":
{"coordinates": [43.3178000,6.4690760], "werk_id": "0003", "werk_titel": "Antapodosis", "quellen_id": "0001", "period_from": "895-01-01", "period_to": "905-12-31", "place": "La Garde-Freinet", "auffaelligkeiten": ["Kampfhandlung","Plünderung","Invasion","Hilfe","Eroberung","Vertreibung","Flotte"]}},
{"circle":
{"coordinates": [43.3178000,6.4690760], "werk_id": "0003", "werk_titel": "Antapodosis", "quellen_id": "0002", "period_from": "895-01-01", "period_to": "905-12-31", "place": "La Garde-Freinet", "auffaelligkeiten": ["Invasion","Plünderung","Schutzmaßnahme"]}},
{"circle":
{"coordinates": [44.6763846,8.4670285], "werk_id": "0003", "werk_titel": "Antapodosis", "quellen_id": "0002", "period_from": "895-01-01", "period_to": "905-12-31", "place": "Acqui", "auffaelligkeiten": ["Invasion","Plünderung","Schutzmaßnahme"]}},
{"circle":
{"coordinates": [45.1847248,9.1582069], "werk_id": "0003", "werk_titel": "Antapodosis", "quellen_id": "0002", "period_from": "895-01-01", "period_to": "905-12-31", "place": "Pavia", "auffaelligkeiten": ["Invasion","Plünderung","Schutzmaßnahme"]}},
{"circle":
{"coordinates": [-8.7831950,34.5085230], "werk_id": "0003", "werk_titel": "Antapodosis", "quellen_id": "0003", "period_from": "900-01-01", "period_to": "905-12-31", "place": "Afrika", "auffaelligkeiten": ["Invasion","Belagerung","Bedrohung","Eroberung"]}},
{"circle":
{"coordinates": [39.3087714,16.3463791], "werk_id": "0003", "werk_titel": "Antapodosis", "quellen_id": "0003", "period_from": "900-01-01", "period_to": "905-12-31", "place": "Kalabrien", "auffaelligkeiten": ["Invasion","Belagerung","Bedrohung","Eroberung"]}},
{"circle":
{"coordinates": [40.7928393,17.1011931], "werk_id": "0003", "werk_titel": "Antapodosis", "quellen_id": "0003", "period_from": "900-01-01", "period_to": "905-12-31", "place": "Apulien", "auffaelligkeiten": ["Invasion","Belagerung","Bedrohung","Eroberung"]}},
{"circle":
{"coordinates": [41.1297613,14.7826208], "werk_id": "0003", "werk_titel": "Antapodosis", "quellen_id": "0003", "period_from": "900-01-01", "period_to": "905-12-31", "place": "Benevent", "auffaelligkeiten": ["Invasion","Belagerung","Bedrohung","Eroberung"]}},
{"circle":
{"coordinates": [40.7332285,8.5625948], "werk_id": "0003", "werk_titel": "Antapodosis", "quellen_id": "0003", "period_from": "900-01-01", "period_to": "905-12-31", "place": "Monte d'Argento", "auffaelligkeiten": ["Invasion","Belagerung","Bedrohung","Eroberung"]}},
{"circle":
{"coordinates": [43.3178000,6.4690760], "werk_id": "0003", "werk_titel": "Antapodosis", "quellen_id": "0003", "period_from": "900-01-01", "period_to": "905-12-31", "place": "La Garde-Freinet", "auffaelligkeiten": ["Invasion","Belagerung","Bedrohung","Eroberung"]}},
{"circle":
{"coordinates": [-8.7831950,34.5085230], "werk_id": "0003", "werk_titel": "Antapodosis", "quellen_id": "0004", "period_from": "912-01-01", "period_to": "959-12-31", "place": "Afrika", "auffaelligkeiten": ["Invasion","Eroberung","Kampfhandlung","Bündnis","Hilfe"]}},
{"circle":
{"coordinates": [41.8719400,12.5673800], "werk_id": "0003", "werk_titel": "Antapodosis", "quellen_id": "0004", "period_from": "912-01-01", "period_to": "959-12-31", "place": "Italien", "auffaelligkeiten": ["Invasion","Eroberung","Kampfhandlung","Bündnis","Hilfe"]}},
{"circle":
{"coordinates": [41.0082376,28.9783589], "werk_id": "0003", "werk_titel": "Antapodosis", "quellen_id": "0004", "period_from": "912-01-01", "period_to": "959-12-31", "place": "Konstantinopel", "auffaelligkeiten": ["Invasion","Eroberung","Kampfhandlung","Bündnis","Hilfe"]}},
{"circle":
{"coordinates": [40.7928393,17.1011931], "werk_id": "0003", "werk_titel": "Antapodosis", "quellen_id": "0004", "period_from": "912-01-01", "period_to": "959-12-31", "place": "Apulien", "auffaelligkeiten": ["Invasion","Eroberung","Kampfhandlung","Bündnis","Hilfe"]}},
{"circle":
{"coordinates": [39.3087714,16.3463791], "werk_id": "0003", "werk_titel": "Antapodosis", "quellen_id": "0004", "period_from": "912-01-01", "period_to": "959-12-31", "place": "Kalabrien", "auffaelligkeiten": ["Invasion","Eroberung","Kampfhandlung","Bündnis","Hilfe"]}},
{"circle":
{"coordinates": [40.7332285,8.5625948], "werk_id": "0003", "werk_titel": "Antapodosis", "quellen_id": "0004", "period_from": "912-01-01", "period_to": "959-12-31", "place": "Monte d'Argento", "auffaelligkeiten": ["Invasion","Eroberung","Kampfhandlung","Bündnis","Hilfe"]}},
{"circle":
{"coordinates": [-8.7831950,34.5085230], "werk_id": "0003", "werk_titel": "Antapodosis", "quellen_id": "0004", "period_from": "913-01-01", "period_to": "913-12-31", "place": "Afrika", "auffaelligkeiten": ["Invasion","Eroberung","Kampfhandlung","Bündnis","Hilfe"]}},
{"circle":
{"coordinates": [41.8719400,12.5673800], "werk_id": "0003", "werk_titel": "Antapodosis", "quellen_id": "0004", "period_from": "913-01-01", "period_to": "913-12-31", "place": "Italien", "auffaelligkeiten": ["Invasion","Eroberung","Kampfhandlung","Bündnis","Hilfe"]}},
{"circle":
{"coordinates": [41.0082376,28.9783589], "werk_id": "0003", "werk_titel": "Antapodosis", "quellen_id": "0004", "period_from": "913-01-01", "period_to": "913-12-31", "place": "Konstantinopel", "auffaelligkeiten": ["Invasion","Eroberung","Kampfhandlung","Bündnis","Hilfe"]}},
{"circle":
{"coordinates": [40.7928393,17.1011931], "werk_id": "0003", "werk_titel": "Antapodosis", "quellen_id": "0004", "period_from": "913-01-01", "period_to": "913-12-31", "place": "Apulien", "auffaelligkeiten": ["Invasion","Eroberung","Kampfhandlung","Bündnis","Hilfe"]}},
{"circle":
{"coordinates": [39.3087714,16.3463791], "werk_id": "0003", "werk_titel": "Antapodosis", "quellen_id": "0004", "period_from": "913-01-01", "period_to": "913-12-31", "place": "Kalabrien", "auffaelligkeiten": ["Invasion","Eroberung","Kampfhandlung","Bündnis","Hilfe"]}},
{"circle":
{"coordinates": [40.7332285,8.5625948], "werk_id": "0003", "werk_titel": "Antapodosis", "quellen_id": "0004", "period_from": "913-01-01", "period_to": "913-12-31", "place": "Monte d'Argento", "auffaelligkeiten": ["Invasion","Eroberung","Kampfhandlung","Bündnis","Hilfe"]}},
{"circle":
{"coordinates": [40.7332285,8.5625948], "werk_id": "0003", "werk_titel": "Antapodosis", "quellen_id": "0005", "period_from": "914-01-01", "period_to": "914-12-31", "place": "Monte d'Argento", "auffaelligkeiten": ["Kampfhandlung","Sieg","Hinterhalt/-list","Stadtübergabe"]}},
{"circle":
{"coordinates": [41.0082376,28.9783589], "werk_id": "0003", "werk_titel": "Antapodosis", "quellen_id": "0006", "period_from": "915-01-01", "period_to": "915-12-31", "place": "Konstantinopel", "auffaelligkeiten": ["Heeresaufgebot","Kampfhandlung","Sieg","Bündnis, Gottesurteil","Flotte"]}},
{"circle":
{"coordinates": [41.3114048,13.8280773], "werk_id": "0003", "werk_titel": "Antapodosis", "quellen_id": "0006", "period_from": "915-01-01", "period_to": "915-12-31", "place": "Garigliano", "auffaelligkeiten": ["Heeresaufgebot","Kampfhandlung","Sieg","Bündnis, Gottesurteil","Flotte"]}},
{"circle":
{"coordinates": [41.0082376,28.9783589], "werk_id": "0003", "werk_titel": "Antapodosis", "quellen_id": "0008", "period_from": "913-01-01", "period_to": "919-12-31", "place": "Konstantinopel", "auffaelligkeiten": ["Kampfhandlung","Bedrohung","Heeresaufgebot","Flotte"]}},
{"circle":
{"coordinates": [35.2401170,24.8092691], "werk_id": "0003", "werk_titel": "Antapodosis", "quellen_id": "0008", "period_from": "913-01-01", "period_to": "919-12-31", "place": "Kreta", "auffaelligkeiten": ["Kampfhandlung","Bedrohung","Heeresaufgebot","Flotte"]}},
{"circle":
{"coordinates": [43.3178000,6.4690760], "werk_id": "0003", "werk_titel": "Antapodosis", "quellen_id": "0009", "period_from": "931-01-01", "period_to": "941-12-31", "place": "La Garde-Freinet", "auffaelligkeiten": ["Invasion","Kampfhandlung"]}},
{"circle":
{"coordinates": [44.6763846,8.4670285], "werk_id": "0003", "werk_titel": "Antapodosis", "quellen_id": "0009", "period_from": "931-01-01", "period_to": "941-12-31", "place": "Acqui", "auffaelligkeiten": ["Invasion","Kampfhandlung"]}},
{"circle":
{"coordinates": [45.1847248,9.1582069], "werk_id": "0003", "werk_titel": "Antapodosis", "quellen_id": "0009", "period_from": "931-01-01", "period_to": "941-12-31", "place": "Pavia", "auffaelligkeiten": ["Invasion","Kampfhandlung"]}},
{"circle":
{"coordinates": [44.4056499,8.9462560], "werk_id": "0003", "werk_titel": "Antapodosis", "quellen_id": "0010", "period_from": "934-01-01", "period_to": "935-12-31", "place": "Genua", "auffaelligkeiten": ["Plünderung","Beute","Zerstörung","Tod","Flotte"]}},
{"circle":
{"coordinates": [-8.7831950,34.5085230], "werk_id": "0003", "werk_titel": "Antapodosis", "quellen_id": "0010", "period_from": "934-01-01", "period_to": "935-12-31", "place": "Afrika", "auffaelligkeiten": ["Plünderung","Beute","Zerstörung","Tod","Flotte"]}},
{"circle":
{"coordinates": [43.3178000,6.4690760], "werk_id": "0003", "werk_titel": "Antapodosis", "quellen_id": "0011", "period_from": "941-01-01", "period_to": "941-12-31", "place": "La Garde-Freinet", "auffaelligkeiten": ["Bündnis","Kampfhandlung","Hilfe","Zerstörung","Schutzmaßnahme","Flotte"]}},
{"circle":
{"coordinates": [41.0082376,28.9783589], "werk_id": "0003", "werk_titel": "Antapodosis", "quellen_id": "0011", "period_from": "941-01-01", "period_to": "941-12-31", "place": "Konstantinopel", "auffaelligkeiten": ["Bündnis","Kampfhandlung","Hilfe","Zerstörung","Schutzmaßnahme","Flotte"]}},
{"circle":
{"coordinates": [40.4636670,-3.7492200], "werk_id": "0003", "werk_titel": "Antapodosis", "quellen_id": "0011", "period_from": "941-01-01", "period_to": "941-12-31", "place": "Spanien", "auffaelligkeiten": ["Bündnis","Kampfhandlung","Hilfe","Zerstörung","Schutzmaßnahme","Flotte"]}},
{"circle":
{"coordinates": [41.0082376,28.9783589], "werk_id": "0003", "werk_titel": "Antapodosis", "quellen_id": "0013", "period_from": "941-01-01", "period_to": "941-12-31", "place": "Konstantinopel", "auffaelligkeiten": ["Kampfhandlung","Bedrohung","Schutzmaßnahme","Flotte"]}},
{"circle":
{"coordinates": [43.3178000,6.4690760], "werk_id": "0003", "werk_titel": "Antapodosis", "quellen_id": "0014", "period_from": "942-01-01", "period_to": "942-12-31", "place": "La Garde-Freinet", "auffaelligkeiten": ["Bündnis","Kampfhandlung","Flotte"]}},
{"circle":
{"coordinates": [47.6032620,7.3549190], "werk_id": "0003", "werk_titel": "Antapodosis", "quellen_id": "0015", "period_from": "942-01-01", "period_to": "942-12-31", "place": "Franken", "auffaelligkeiten": ["Bündnis","Kampfhandlung","Heeresaufgebot"]}},
{"circle":
{"coordinates": [40.7928393,17.1011931], "werk_id": "0004", "werk_titel": "Rerum gestarum Saxonicarum libri tres", "quellen_id": "0002", "period_from": "968-01-01", "period_to": "968-12-31", "place": "Apulien", "auffaelligkeiten": ["Gesandtschaft","Verhandlungen","Bündnis"]}},
{"circle":
{"coordinates": [39.3087714,16.3463791], "werk_id": "0004", "werk_titel": "Rerum gestarum Saxonicarum libri tres", "quellen_id": "0002", "period_from": "968-01-01", "period_to": "968-12-31", "place": "Kalabrien", "auffaelligkeiten": ["Gesandtschaft","Verhandlungen","Bündnis"]}},
{"circle":
{"coordinates": [47.6032620,7.3549190], "werk_id": "0004", "werk_titel": "Rerum gestarum Saxonicarum libri tres", "quellen_id": "0002", "period_from": "968-01-01", "period_to": "968-12-31", "place": "Franken", "auffaelligkeiten": ["Gesandtschaft","Verhandlungen","Bündnis"]}},
{"circle":
{"coordinates": [43.3178000,6.4690760], "werk_id": "0004", "werk_titel": "Rerum gestarum Saxonicarum libri tres", "quellen_id": "0002", "period_from": "968-01-01", "period_to": "968-12-31", "place": "La Garde-Freinet", "auffaelligkeiten": ["Gesandtschaft","Verhandlungen","Bündnis"]}},
{"circle":
{"coordinates": [41.8719400,12.5673800], "werk_id": "0004", "werk_titel": "Rerum gestarum Saxonicarum libri tres", "quellen_id": "0003", "period_from": "972-01-01", "period_to": "972-12-31", "place": "Italien", "auffaelligkeiten": ["Kampfhandlung","Sieg","Gefangennahme","Würdigung"]}},
{"circle":
{"coordinates": [-8.7831950,34.5085230], "werk_id": "0004", "werk_titel": "Rerum gestarum Saxonicarum libri tres", "quellen_id": "0003", "period_from": "972-01-01", "period_to": "972-12-31", "place": "Afrika", "auffaelligkeiten": ["Kampfhandlung","Sieg","Gefangennahme","Würdigung"]}},
{"circle":
{"coordinates": [41.8719400,12.5673800], "werk_id": "0004", "werk_titel": "Rerum gestarum Saxonicarum libri tres", "quellen_id": "0003", "period_from": "973-01-01", "period_to": "973-12-31", "place": "Italien", "auffaelligkeiten": ["Kampfhandlung","Sieg","Gefangennahme","Würdigung"]}},
{"circle":
{"coordinates": [-8.7831950,34.5085230], "werk_id": "0004", "werk_titel": "Rerum gestarum Saxonicarum libri tres", "quellen_id": "0003", "period_from": "973-01-01", "period_to": "973-12-31", "place": "Afrika", "auffaelligkeiten": ["Kampfhandlung","Sieg","Gefangennahme","Würdigung"]}},
{"circle":
{"coordinates": [41.8719400,12.5673800], "werk_id": "0004", "werk_titel": "Rerum gestarum Saxonicarum libri tres", "quellen_id": "0003", "period_from": "973-01-01", "period_to": "973-12-31", "place": "Italien", "auffaelligkeiten": ["Kampfhandlung","Sieg","Gefangennahme","Würdigung"]}},
{"circle":
{"coordinates": [-8.7831950,34.5085230], "werk_id": "0004", "werk_titel": "Rerum gestarum Saxonicarum libri tres", "quellen_id": "0003", "period_from": "973-01-01", "period_to": "973-12-31", "place": "Afrika", "auffaelligkeiten": ["Kampfhandlung","Sieg","Gefangennahme","Würdigung"]}},
{"circle":
{"coordinates": [47.0525047,4.3837215], "werk_id": "0005", "werk_titel": "Casuum S. Galli continuatio", "quellen_id": "0001", "period_from": "932-01-01", "period_to": "942-12-31", "place": "Burgund", "auffaelligkeiten": ["Invasion","Kampfhandlung","Gesandtschaften","Verhandlungen","Hinterhalt/-list","Einnahme","Flotte","Frieden","Bündnis"]}},
{"circle":
{"coordinates": [43.3178000,6.4690760], "werk_id": "0005", "werk_titel": "Casuum S. Galli continuatio", "quellen_id": "0001", "period_from": "932-01-01", "period_to": "942-12-31", "place": "La Garde-Freinet", "auffaelligkeiten": ["Invasion","Kampfhandlung","Gesandtschaften","Verhandlungen","Hinterhalt/-list","Einnahme","Flotte","Frieden","Bündnis"]}},
{"circle":
{"coordinates": [46.8876191,9.6569996], "werk_id": "0005", "werk_titel": "Casuum S. Galli continuatio", "quellen_id": "0002", "period_from": "961-01-01", "period_to": "968-12-31", "place": "Alpen", "auffaelligkeiten": ["Kampfhandlung","Bedrohung","Hinterhalt/-list","Tod","Versteck","Flucht","Überfall"]}},
{"circle":
{"coordinates": [46.8876191,9.6569996], "werk_id": "0005", "werk_titel": "Casuum S. Galli continuatio", "quellen_id": "0002", "period_from": "961-01-01", "period_to": "969-12-31", "place": "Alpen", "auffaelligkeiten": ["Kampfhandlung","Bedrohung","Hinterhalt/-list","Tod","Versteck","Flucht","Überfall"]}},
{"circle":
{"coordinates": [43.9516850,-0.3696680], "werk_id": "0006", "werk_titel": "Vita Karoli Magni", "quellen_id": "0001", "period_from": "732-01-01", "period_to": "732-12-31", "place": "Gallien", "auffaelligkeiten": ["Kampfhandlung","Sieg","Rückzug"]}},
{"circle":
{"coordinates": [44.7002222,-0.2995785], "werk_id": "0006", "werk_titel": "Vita Karoli Magni", "quellen_id": "0001", "period_from": "732-01-01", "period_to": "732-12-31", "place": "Aquitanien", "auffaelligkeiten": ["Kampfhandlung","Sieg","Rückzug"]}},
{"circle":
{"coordinates": [46.5802240,0.3403750], "werk_id": "0006", "werk_titel": "Vita Karoli Magni", "quellen_id": "0001", "period_from": "732-01-01", "period_to": "732-12-31", "place": "Poitiers", "auffaelligkeiten": ["Kampfhandlung","Sieg","Rückzug"]}},
{"circle":
{"coordinates": [43.1842770,3.0030780], "werk_id": "0006", "werk_titel": "Vita Karoli Magni", "quellen_id": "0001", "period_from": "732-01-01", "period_to": "732-12-31", "place": "Narbonne", "auffaelligkeiten": ["Kampfhandlung","Sieg","Rückzug"]}},
{"circle":
{"coordinates": [43.4547792,5.1061319], "werk_id": "0006", "werk_titel": "Vita Karoli Magni", "quellen_id": "0001", "period_from": "732-01-01", "period_to": "732-12-31", "place": "Berre", "auffaelligkeiten": ["Kampfhandlung","Sieg","Rückzug"]}},
{"circle":
{"coordinates": [40.4636670,-3.7492200], "werk_id": "0006", "werk_titel": "Vita Karoli Magni", "quellen_id": "0001", "period_from": "732-01-01", "period_to": "732-12-31", "place": "Spanien", "auffaelligkeiten": ["Kampfhandlung","Sieg","Rückzug"]}},
{"circle":
{"coordinates": [43.9516850,-0.3696680], "werk_id": "0006", "werk_titel": "Vita Karoli Magni", "quellen_id": "0001", "period_from": "737-01-01", "period_to": "737-12-31", "place": "Gallien", "auffaelligkeiten": ["Kampfhandlung","Sieg","Rückzug"]}},
{"circle":
{"coordinates": [44.7002222,-0.2995785], "werk_id": "0006", "werk_titel": "Vita Karoli Magni", "quellen_id": "0001", "period_from": "737-01-01", "period_to": "737-12-31", "place": "Aquitanien", "auffaelligkeiten": ["Kampfhandlung","Sieg","Rückzug"]}},
{"circle":
{"coordinates": [46.5802240,0.3403750], "werk_id": "0006", "werk_titel": "Vita Karoli Magni", "quellen_id": "0001", "period_from": "737-01-01", "period_to": "737-12-31", "place": "Poitiers", "auffaelligkeiten": ["Kampfhandlung","Sieg","Rückzug"]}},
{"circle":
{"coordinates": [43.1842770,3.0030780], "werk_id": "0006", "werk_titel": "Vita Karoli Magni", "quellen_id": "0001", "period_from": "737-01-01", "period_to": "737-12-31", "place": "Narbonne", "auffaelligkeiten": ["Kampfhandlung","Sieg","Rückzug"]}},
{"circle":
{"coordinates": [43.4547792,5.1061319], "werk_id": "0006", "werk_titel": "Vita Karoli Magni", "quellen_id": "0001", "period_from": "737-01-01", "period_to": "737-12-31", "place": "Berre", "auffaelligkeiten": ["Kampfhandlung","Sieg","Rückzug"]}},
{"circle":
{"coordinates": [40.4636670,-3.7492200], "werk_id": "0006", "werk_titel": "Vita Karoli Magni", "quellen_id": "0001", "period_from": "737-01-01", "period_to": "737-12-31", "place": "Spanien", "auffaelligkeiten": ["Kampfhandlung","Sieg","Rückzug"]}},
{"circle":
{"coordinates": [43.1842770,3.0030780], "werk_id": "0006", "werk_titel": "Vita Karoli Magni", "quellen_id": "0003", "period_from": "813-01-01", "period_to": "813-12-31", "place": "Narbonne", "auffaelligkeiten": ["Schutzmaßnahme","Eroberung","Bedrohung","Verrat","Flotte"]}},
{"circle":
{"coordinates": [43.6397182,3.4962386], "werk_id": "0006", "werk_titel": "Vita Karoli Magni", "quellen_id": "0003", "period_from": "813-01-01", "period_to": "813-12-31", "place": "Septimanien", "auffaelligkeiten": ["Schutzmaßnahme","Eroberung","Bedrohung","Verrat","Flotte"]}},
{"circle":
{"coordinates": [41.9027835,12.4963655], "werk_id": "0006", "werk_titel": "Vita Karoli Magni", "quellen_id": "0003", "period_from": "813-01-01", "period_to": "813-12-31", "place": "Rom", "auffaelligkeiten": ["Schutzmaßnahme","Eroberung","Bedrohung","Verrat","Flotte"]}},
{"circle":
{"coordinates": [41.8719400,12.5673800], "werk_id": "0006", "werk_titel": "Vita Karoli Magni", "quellen_id": "0003", "period_from": "813-01-01", "period_to": "813-12-31", "place": "Italien", "auffaelligkeiten": ["Schutzmaßnahme","Eroberung","Bedrohung","Verrat","Flotte"]}},
{"circle":
{"coordinates": [43.9516850,-0.3696680], "werk_id": "0006", "werk_titel": "Vita Karoli Magni", "quellen_id": "0003", "period_from": "813-01-01", "period_to": "813-12-31", "place": "Gallien", "auffaelligkeiten": ["Schutzmaßnahme","Eroberung","Bedrohung","Verrat","Flotte"]}},
{"circle":
{"coordinates": [47.5000000,7.5000000], "werk_id": "0006", "werk_titel": "Vita Karoli Magni", "quellen_id": "0003", "period_from": "813-01-01", "period_to": "813-12-31", "place": "Germanien", "auffaelligkeiten": ["Schutzmaßnahme","Eroberung","Bedrohung","Verrat","Flotte"]}},
{"circle":
{"coordinates": [42.0924239,11.7954132], "werk_id": "0006", "werk_titel": "Vita Karoli Magni", "quellen_id": "0003", "period_from": "813-01-01", "period_to": "813-12-31", "place": "Civitavecchia", "auffaelligkeiten": ["Schutzmaßnahme","Eroberung","Bedrohung","Verrat","Flotte"]}},
{"circle":
{"coordinates": [42.4210679,11.7541858], "werk_id": "0006", "werk_titel": "Vita Karoli Magni", "quellen_id": "0003", "period_from": "813-01-01", "period_to": "813-12-31", "place": "Etrurien", "auffaelligkeiten": ["Schutzmaßnahme","Eroberung","Bedrohung","Verrat","Flotte"]}},
{"circle":
{"coordinates": [43.8670244,0.4172706], "werk_id": "0007", "werk_titel": "Annales Fuldenses", "quellen_id": "0001", "period_from": "722-01-01", "period_to": "732-12-31", "place": "Garonne", "auffaelligkeiten": ["Zerstörung","Hilfe","Bündnis"]}},
{"circle":
{"coordinates": [44.8377890,-0.5791800], "werk_id": "0007", "werk_titel": "Annales Fuldenses", "quellen_id": "0001", "period_from": "722-01-01", "period_to": "732-12-31", "place": "Bordeaux", "auffaelligkeiten": ["Zerstörung","Hilfe","Bündnis"]}},
{"circle":
{"coordinates": [46.5802240,0.3403750], "werk_id": "0007", "werk_titel": "Annales Fuldenses", "quellen_id": "0001", "period_from": "722-01-01", "period_to": "732-12-31", "place": "Poitiers", "auffaelligkeiten": ["Zerstörung","Hilfe","Bündnis"]}},
{"circle":
{"coordinates": [43.9493170,4.8055280], "werk_id": "0007", "werk_titel": "Annales Fuldenses", "quellen_id": "0003", "period_from": "737-01-01", "period_to": "737-12-31", "place": "Avignon", "auffaelligkeiten": ["Einnahme","Eroberung","Zerstörung"]}},
{"circle":
{"coordinates": [43.9493170,4.8055280], "werk_id": "0007", "werk_titel": "Annales Fuldenses", "quellen_id": "0004", "period_from": "737-01-01", "period_to": "737-12-31", "place": "Avignon", "auffaelligkeiten": ["Belagerung","Eroberung","Einnahme","Kampfhandlung","Sieg"]}},
{"circle":
{"coordinates": [43.1842770,3.0030780], "werk_id": "0007", "werk_titel": "Annales Fuldenses", "quellen_id": "0005", "period_from": "737-01-01", "period_to": "737-12-31", "place": "Narbonne", "auffaelligkeiten": ["Belagerung"]}},
{"circle":
{"coordinates": [40.4636670,-3.7492200], "werk_id": "0007", "werk_titel": "Annales Fuldenses", "quellen_id": "0006", "period_from": "737-01-01", "period_to": "737-12-31", "place": "Spanien", "auffaelligkeiten": ["Kampfhandlung","Niederlage","Tod","Hilfe","Sieg"]}},
{"circle":
{"coordinates": [43.1842770,3.0030780], "werk_id": "0007", "werk_titel": "Annales Fuldenses", "quellen_id": "0006", "period_from": "737-01-01", "period_to": "737-12-31", "place": "Narbonne", "auffaelligkeiten": ["Kampfhandlung","Niederlage","Tod","Hilfe","Sieg"]}},
{"circle":
{"coordinates": [44.0144936,6.2116438], "werk_id": "0007", "werk_titel": "Annales Fuldenses", "quellen_id": "0009", "period_from": "738-01-01", "period_to": "738-12-31", "place": "Provence", "auffaelligkeiten": ["Verrat","Hinterhalt/-list","Flucht"]}},
{"circle":
{"coordinates": [44.0144936,6.2116438], "werk_id": "0007", "werk_titel": "Annales Fuldenses", "quellen_id": "0009", "period_from": "739-01-01", "period_to": "739-12-31", "place": "Provence", "auffaelligkeiten": ["Verrat","Hinterhalt/-list","Flucht"]}},
{"circle":
{"coordinates": [41.3850639,2.1734035], "werk_id": "0007", "werk_titel": "Annales Fuldenses", "quellen_id": "0010", "period_from": "792-01-01", "period_to": "802-12-31", "place": "Barcelona", "auffaelligkeiten": ["Stadtübergabe"]}},
{"circle":
{"coordinates": [40.4636670,-3.7492200], "werk_id": "0007", "werk_titel": "Annales Fuldenses", "quellen_id": "0010", "period_from": "792-01-01", "period_to": "802-12-31", "place": "Spanien", "auffaelligkeiten": ["Stadtübergabe"]}},
{"circle":
{"coordinates": [50.7753455,6.0838868], "werk_id": "0007", "werk_titel": "Annales Fuldenses", "quellen_id": "0011", "period_from": "797-01-01", "period_to": "797-12-31", "place": "Aachen", "auffaelligkeiten": ["Flucht","Vertreibung","Unterwerfung","Würdigung"]}},
{"circle":
{"coordinates": [21.0078900,-10.9408350], "werk_id": "0007", "werk_titel": "Annales Fuldenses", "quellen_id": "0011", "period_from": "797-01-01", "period_to": "797-12-31", "place": "Mauretanien", "auffaelligkeiten": ["Flucht","Vertreibung","Unterwerfung","Würdigung"]}},
{"circle":
{"coordinates": [38.7222524,-9.1393366], "werk_id": "0007", "werk_titel": "Annales Fuldenses", "quellen_id": "0012", "period_from": "798-01-01", "period_to": "798-12-31", "place": "Lissabon", "auffaelligkeiten": ["Gefangennahme","Eroberung","Einnahme","Geschenke"]}},
{"circle":
{"coordinates": [40.4636670,-3.7492200], "werk_id": "0007", "werk_titel": "Annales Fuldenses", "quellen_id": "0012", "period_from": "798-01-01", "period_to": "798-12-31", "place": "Spanien", "auffaelligkeiten": ["Gefangennahme","Eroberung","Einnahme","Geschenke"]}},
{"circle":
{"coordinates": [39.5341789,2.8577105], "werk_id": "0007", "werk_titel": "Annales Fuldenses", "quellen_id": "0014", "period_from": "798-01-01", "period_to": "798-12-31", "place": "Balearen", "auffaelligkeiten": ["Hilfe","Beute","Überfall","Kampfhandlung"]}},
{"circle":
{"coordinates": [39.5341789,2.8577105], "werk_id": "0007", "werk_titel": "Annales Fuldenses", "quellen_id": "0014", "period_from": "799-01-01", "period_to": "799-12-31", "place": "Balearen", "auffaelligkeiten": ["Hilfe","Beute","Überfall","Kampfhandlung"]}},
{"circle":
{"coordinates": [41.3850639,2.1734035], "werk_id": "0007", "werk_titel": "Annales Fuldenses", "quellen_id": "0015", "period_from": "801-01-01", "period_to": "801-12-31", "place": "Barcelona", "auffaelligkeiten": ["Eroberung","Verbannung","Einnahme","Gefangennahme"]}},
{"circle":
{"coordinates": [40.4636670,-3.7492200], "werk_id": "0007", "werk_titel": "Annales Fuldenses", "quellen_id": "0015", "period_from": "801-01-01", "period_to": "801-12-31", "place": "Spanien", "auffaelligkeiten": ["Eroberung","Verbannung","Einnahme","Gefangennahme"]}},
{"circle":
{"coordinates": [41.8719400,12.5673800], "werk_id": "0007", "werk_titel": "Annales Fuldenses", "quellen_id": "0015", "period_from": "801-01-01", "period_to": "801-12-31", "place": "Italien", "auffaelligkeiten": ["Eroberung","Verbannung","Einnahme","Gefangennahme"]}},
{"circle":
{"coordinates": [42.3478860,14.1635845], "werk_id": "0007", "werk_titel": "Annales Fuldenses", "quellen_id": "0015", "period_from": "801-01-01", "period_to": "801-12-31", "place": "Chieti", "auffaelligkeiten": ["Eroberung","Verbannung","Einnahme","Gefangennahme"]}},
{"circle":
{"coordinates": [50.7753455,6.0838868], "werk_id": "0007", "werk_titel": "Annales Fuldenses", "quellen_id": "0016", "period_from": "802-01-01", "period_to": "802-12-31", "place": "Aachen", "auffaelligkeiten": ["Elefant","Geschenke"]}},
{"circle":
{"coordinates": [44.4056499,8.9462560], "werk_id": "0007", "werk_titel": "Annales Fuldenses", "quellen_id": "0017", "period_from": "806-01-01", "period_to": "806-12-31", "place": "Genua", "auffaelligkeiten": ["Flotte","Kampfhandlung","Vertreibung"]}},
{"circle":
{"coordinates": [42.0396042,9.0128926], "werk_id": "0007", "werk_titel": "Annales Fuldenses", "quellen_id": "0019", "period_from": "807-01-01", "period_to": "807-12-31", "place": "Korsika", "auffaelligkeiten": ["Flotte","Niederlage","Gefangennahme","Kampfhandlung"]}},
{"circle":
{"coordinates": [40.8125777,0.5214423], "werk_id": "0007", "werk_titel": "Annales Fuldenses", "quellen_id": "0020", "period_from": "809-01-01", "period_to": "809-12-31", "place": "Tortosa", "auffaelligkeiten": ["Belagerung"]}},
{"circle":
{"coordinates": [40.4636670,-3.7492200], "werk_id": "0007", "werk_titel": "Annales Fuldenses", "quellen_id": "0020", "period_from": "809-01-01", "period_to": "809-12-31", "place": "Spanien", "auffaelligkeiten": ["Belagerung"]}},
{"circle":
{"coordinates": [50.7753455,6.0838868], "werk_id": "0007", "werk_titel": "Annales Fuldenses", "quellen_id": "0021", "period_from": "810-01-01", "period_to": "810-12-31", "place": "Aachen", "auffaelligkeiten": ["Frieden","Freilassung"]}},
{"circle":
{"coordinates": [45.4408474,12.3155151], "werk_id": "0007", "werk_titel": "Annales Fuldenses", "quellen_id": "0021", "period_from": "810-01-01", "period_to": "810-12-31", "place": "Venedig", "auffaelligkeiten": ["Frieden","Freilassung"]}},
{"circle":
{"coordinates": [50.5094045,7.9615164], "werk_id": "0007", "werk_titel": "Annales Fuldenses", "quellen_id": "0022", "period_from": "826-01-01", "period_to": "826-12-31", "place": "Salz", "auffaelligkeiten": ["Verrat","Flucht","Rebellion","Hilfe"]}},
{"circle":
{"coordinates": [41.9794005,2.8214264], "werk_id": "0007", "werk_titel": "Annales Fuldenses", "quellen_id": "0023", "period_from": "827-01-01", "period_to": "827-12-31", "place": "Gerona", "auffaelligkeiten": ["Rebellion","Zerstörung","Hilfe"]}},
{"circle":
{"coordinates": [41.3850639,2.1734035], "werk_id": "0007", "werk_titel": "Annales Fuldenses", "quellen_id": "0023", "period_from": "827-01-01", "period_to": "827-12-31", "place": "Barcelona", "auffaelligkeiten": ["Rebellion","Zerstörung","Hilfe"]}},
{"circle":
{"coordinates": [41.6488696,-0.8897421], "werk_id": "0007", "werk_titel": "Annales Fuldenses", "quellen_id": "0023", "period_from": "827-01-01", "period_to": "827-12-31", "place": "Saragossa", "auffaelligkeiten": ["Rebellion","Zerstörung","Hilfe"]}},
{"circle":
{"coordinates": [41.1297613,14.7826208], "werk_id": "0007", "werk_titel": "Annales Fuldenses", "quellen_id": "0024", "period_from": "842-01-01", "period_to": "842-12-31", "place": "Benevent", "auffaelligkeiten": ["Eroberung","Einnahme"]}},
{"circle":
{"coordinates": [41.9027835,12.4963655], "werk_id": "0007", "werk_titel": "Annales Fuldenses", "quellen_id": "0025", "period_from": "846-01-01", "period_to": "846-12-31", "place": "Rom", "auffaelligkeiten": ["Invasion","Verwüstung","Heilige Stätte"]}},
{"circle":
{"coordinates": [41.8719400,12.5673800], "werk_id": "0007", "werk_titel": "Annales Fuldenses", "quellen_id": "0026", "period_from": "883-01-01", "period_to": "883-12-31", "place": "Italien", "auffaelligkeiten": ["Bedrohung","Bündnis","Flucht","Verrat"]}},
{"circle":
{"coordinates": [31.1982456667,29.9079146667], "werk_id": "0008", "werk_titel": "Chronicon cum Continuatione Treverensi", "quellen_id": "0001", "period_from": "641-01-01", "period_to": "668-12-31", "place": "Alexandria", "auffaelligkeiten": ["Invasion","Flotte"]}},
{"circle":
{"coordinates": [26.8205530,30.8024980], "werk_id": "0008", "werk_titel": "Chronicon cum Continuatione Treverensi", "quellen_id": "0001", "period_from": "641-01-01", "period_to": "668-12-31", "place": "Ägypten", "auffaelligkeiten": ["Invasion","Flotte"]}},
{"circle":
{"coordinates": [37.5999938,14.0153557], "werk_id": "0008", "werk_titel": "Chronicon cum Continuatione Treverensi", "quellen_id": "0001", "period_from": "641-01-01", "period_to": "668-12-31", "place": "Sizilien", "auffaelligkeiten": ["Invasion","Flotte"]}},
{"circle":
{"coordinates": [37.0754739,15.2865861], "werk_id": "0008", "werk_titel": "Chronicon cum Continuatione Treverensi", "quellen_id": "0001", "period_from": "641-01-01", "period_to": "668-12-31", "place": "Syrakus", "auffaelligkeiten": ["Invasion","Flotte"]}},
{"circle":
{"coordinates": [41.9027835,12.4963655], "werk_id": "0008", "werk_titel": "Chronicon cum Continuatione Treverensi", "quellen_id": "0001", "period_from": "641-01-01", "period_to": "668-12-31", "place": "Rom", "auffaelligkeiten": ["Invasion","Flotte"]}},
{"circle":
{"coordinates": [41.0082376,28.9783589], "werk_id": "0008", "werk_titel": "Chronicon cum Continuatione Treverensi", "quellen_id": "0002", "period_from": "668-01-01", "period_to": "685-12-31", "place": "Konstantinopel", "auffaelligkeiten": ["Bedrohung","Missionierung","Vertreibung","Vorzeichen"]}},
{"circle":
{"coordinates": [-8.7831950,34.5085230], "werk_id": "0008", "werk_titel": "Chronicon cum Continuatione Treverensi", "quellen_id": "0003", "period_from": "685-01-01", "period_to": "695-12-31", "place": "Afrika", "auffaelligkeiten": ["Eroberung","Frieden"]}},
{"circle":
{"coordinates": [31.1982456667,29.9079146667], "werk_id": "0008", "werk_titel": "Chronicon cum Continuatione Treverensi", "quellen_id": "0004", "period_from": "713-01-01", "period_to": "716-12-31", "place": "Alexandria", "auffaelligkeiten": ["Kampfhandlung","Flotte"]}},
{"circle":
{"coordinates": [41.0082376,28.9783589], "werk_id": "0008", "werk_titel": "Chronicon cum Continuatione Treverensi", "quellen_id": "0005", "period_from": "718-01-01", "period_to": "725-12-31", "place": "Konstantinopel", "auffaelligkeiten": ["Belagerung","Bedrohung","Krankheit","Seuche"]}},
{"circle":
{"coordinates": [40.4636670,-3.7492200], "werk_id": "0008", "werk_titel": "Chronicon cum Continuatione Treverensi", "quellen_id": "0006", "period_from": "718-01-01", "period_to": "732-12-31", "place": "Spanien", "auffaelligkeiten": ["Vertreibung","Kampfhandlung"]}},
{"circle":
{"coordinates": [44.7002222,-0.2995785], "werk_id": "0008", "werk_titel": "Chronicon cum Continuatione Treverensi", "quellen_id": "0006", "period_from": "718-01-01", "period_to": "732-12-31", "place": "Aquitanien", "auffaelligkeiten": ["Vertreibung","Kampfhandlung"]}},
{"circle":
{"coordinates": [43.9516850,-0.3696680], "werk_id": "0008", "werk_titel": "Chronicon cum Continuatione Treverensi", "quellen_id": "0006", "period_from": "718-01-01", "period_to": "732-12-31", "place": "Gallien", "auffaelligkeiten": ["Vertreibung","Kampfhandlung"]}},
{"circle":
{"coordinates": [43.9516850,-0.3696680], "werk_id": "0008", "werk_titel": "Chronicon cum Continuatione Treverensi", "quellen_id": "0007", "period_from": "737-01-01", "period_to": "737-12-31", "place": "Gallien", "auffaelligkeiten": ["Invasion","Heeresaufgebot","Kampfhandlung","Flucht","Vertreibung"]}},
{"circle":
{"coordinates": [43.1842770,3.0030780], "werk_id": "0008", "werk_titel": "Chronicon cum Continuatione Treverensi", "quellen_id": "0007", "period_from": "737-01-01", "period_to": "737-12-31", "place": "Narbonne", "auffaelligkeiten": ["Invasion","Heeresaufgebot","Kampfhandlung","Flucht","Vertreibung"]}},
{"circle":
{"coordinates": [44.0144936,6.2116438], "werk_id": "0008", "werk_titel": "Chronicon cum Continuatione Treverensi", "quellen_id": "0007", "period_from": "737-01-01", "period_to": "737-12-31", "place": "Provence", "auffaelligkeiten": ["Invasion","Heeresaufgebot","Kampfhandlung","Flucht","Vertreibung"]}},
{"circle":
{"coordinates": [43.6766470,4.6277769], "werk_id": "0008", "werk_titel": "Chronicon cum Continuatione Treverensi", "quellen_id": "0007", "period_from": "737-01-01", "period_to": "737-12-31", "place": "Arles", "auffaelligkeiten": ["Invasion","Heeresaufgebot","Kampfhandlung","Flucht","Vertreibung"]}},
{"circle":
{"coordinates": [43.9516850,-0.3696680], "werk_id": "0008", "werk_titel": "Chronicon cum Continuatione Treverensi", "quellen_id": "0007", "period_from": "739-01-01", "period_to": "739-12-31", "place": "Gallien", "auffaelligkeiten": ["Invasion","Heeresaufgebot","Kampfhandlung","Flucht","Vertreibung"]}},
{"circle":
{"coordinates": [43.1842770,3.0030780], "werk_id": "0008", "werk_titel": "Chronicon cum Continuatione Treverensi", "quellen_id": "0007", "period_from": "739-01-01", "period_to": "739-12-31", "place": "Narbonne", "auffaelligkeiten": ["Invasion","Heeresaufgebot","Kampfhandlung","Flucht","Vertreibung"]}},
{"circle":
{"coordinates": [44.0144936,6.2116438], "werk_id": "0008", "werk_titel": "Chronicon cum Continuatione Treverensi", "quellen_id": "0007", "period_from": "739-01-01", "period_to": "739-12-31", "place": "Provence", "auffaelligkeiten": ["Invasion","Heeresaufgebot","Kampfhandlung","Flucht","Vertreibung"]}},
{"circle":
{"coordinates": [43.6766470,4.6277769], "werk_id": "0008", "werk_titel": "Chronicon cum Continuatione Treverensi", "quellen_id": "0007", "period_from": "739-01-01", "period_to": "739-12-31", "place": "Arles", "auffaelligkeiten": ["Invasion","Heeresaufgebot","Kampfhandlung","Flucht","Vertreibung"]}},
{"circle":
{"coordinates": [51.7189205,8.7575093], "werk_id": "0008", "werk_titel": "Chronicon cum Continuatione Treverensi", "quellen_id": "0008", "period_from": "777-01-01", "period_to": "777-12-31", "place": "Paderborn", "auffaelligkeiten": ["Gesandtschaft","Annäherung"]}},
{"circle":
{"coordinates": [40.4636670,-3.7492200], "werk_id": "0008", "werk_titel": "Chronicon cum Continuatione Treverensi", "quellen_id": "0008", "period_from": "777-01-01", "period_to": "777-12-31", "place": "Spanien", "auffaelligkeiten": ["Gesandtschaft","Annäherung"]}},
{"circle":
{"coordinates": [40.4636670,-3.7492200], "werk_id": "0008", "werk_titel": "Chronicon cum Continuatione Treverensi", "quellen_id": "0009", "period_from": "778-01-01", "period_to": "778-12-31", "place": "Spanien", "auffaelligkeiten": ["Heeresaufgebot","Unterwerfung","Eroberung","Vertreibung","Invasion","Geschenke","Gefangennahme"]}},
{"circle":
{"coordinates": [42.8125260,-1.6457745], "werk_id": "0008", "werk_titel": "Chronicon cum Continuatione Treverensi", "quellen_id": "0009", "period_from": "778-01-01", "period_to": "778-12-31", "place": "Pamplona", "auffaelligkeiten": ["Heeresaufgebot","Unterwerfung","Eroberung","Vertreibung","Invasion","Geschenke","Gefangennahme"]}},
{"circle":
{"coordinates": [41.6488696,-0.8897421], "werk_id": "0008", "werk_titel": "Chronicon cum Continuatione Treverensi", "quellen_id": "0009", "period_from": "778-01-01", "period_to": "778-12-31", "place": "Saragossa", "auffaelligkeiten": ["Heeresaufgebot","Unterwerfung","Eroberung","Vertreibung","Invasion","Geschenke","Gefangennahme"]}},
{"circle":
{"coordinates": [45.6368490,4.4547040], "werk_id": "0008", "werk_titel": "Chronicon cum Continuatione Treverensi", "quellen_id": "0009", "period_from": "778-01-01", "period_to": "778-12-31", "place": "Gascogne", "auffaelligkeiten": ["Heeresaufgebot","Unterwerfung","Eroberung","Vertreibung","Invasion","Geschenke","Gefangennahme"]}},
{"circle":
{"coordinates": [47.6032620,7.3549190], "werk_id": "0008", "werk_titel": "Chronicon cum Continuatione Treverensi", "quellen_id": "0009", "period_from": "778-01-01", "period_to": "778-12-31", "place": "Franken", "auffaelligkeiten": ["Heeresaufgebot","Unterwerfung","Eroberung","Vertreibung","Invasion","Geschenke","Gefangennahme"]}},
{"circle":
{"coordinates": [50.7753455,6.0838868], "werk_id": "0008", "werk_titel": "Chronicon cum Continuatione Treverensi", "quellen_id": "0010", "period_from": "797-01-01", "period_to": "797-12-31", "place": "Aachen", "auffaelligkeiten": ["Gesandtschaft","Flucht","Vertreibung","Würdigung"]}},
{"circle":
{"coordinates": [21.0078900,-10.9408350], "werk_id": "0008", "werk_titel": "Chronicon cum Continuatione Treverensi", "quellen_id": "0010", "period_from": "797-01-01", "period_to": "797-12-31", "place": "Mauretanien", "auffaelligkeiten": ["Gesandtschaft","Flucht","Vertreibung","Würdigung"]}},
{"circle":
{"coordinates": [51.6391453,9.4177410], "werk_id": "0008", "werk_titel": "Chronicon cum Continuatione Treverensi", "quellen_id": "0010", "period_from": "797-01-01", "period_to": "797-12-31", "place": "Herstelle; heutiges Höxter", "auffaelligkeiten": ["Gesandtschaft","Flucht","Vertreibung","Würdigung"]}},
{"circle":
{"coordinates": [40.4636670,-3.7492200], "werk_id": "0008", "werk_titel": "Chronicon cum Continuatione Treverensi", "quellen_id": "0010", "period_from": "797-01-01", "period_to": "797-12-31", "place": "Spanien", "auffaelligkeiten": ["Gesandtschaft","Flucht","Vertreibung","Würdigung"]}},
{"circle":
{"coordinates": [41.8719400,12.5673800], "werk_id": "0008", "werk_titel": "Chronicon cum Continuatione Treverensi", "quellen_id": "0010", "period_from": "797-01-01", "period_to": "797-12-31", "place": "Italien", "auffaelligkeiten": ["Gesandtschaft","Flucht","Vertreibung","Würdigung"]}},
{"circle":
{"coordinates": [39.5341789,2.8577105], "werk_id": "0008", "werk_titel": "Chronicon cum Continuatione Treverensi", "quellen_id": "0011", "period_from": "798-01-01", "period_to": "798-12-31", "place": "Balearen", "auffaelligkeiten": ["Plünderung","Geschenke","Gefangennahme","Überfall","Einnahme"]}},
{"circle":
{"coordinates": [38.7222524,-9.1393366], "werk_id": "0008", "werk_titel": "Chronicon cum Continuatione Treverensi", "quellen_id": "0011", "period_from": "798-01-01", "period_to": "798-12-31", "place": "Lissabon", "auffaelligkeiten": ["Plünderung","Geschenke","Gefangennahme","Überfall","Einnahme"]}},
{"circle":
{"coordinates": [40.4636670,-3.7492200], "werk_id": "0008", "werk_titel": "Chronicon cum Continuatione Treverensi", "quellen_id": "0011", "period_from": "798-01-01", "period_to": "798-12-31", "place": "Spanien", "auffaelligkeiten": ["Plünderung","Geschenke","Gefangennahme","Überfall","Einnahme"]}},
{"circle":
{"coordinates": [39.5341789,2.8577105], "werk_id": "0008", "werk_titel": "Chronicon cum Continuatione Treverensi", "quellen_id": "0012", "period_from": "799-01-01", "period_to": "799-12-31", "place": "Balearen", "auffaelligkeiten": ["Plünderung","Kampfhandlung","Schutzmaßnahmen"]}},
{"circle":
{"coordinates": [41.3850639,2.1734035], "werk_id": "0008", "werk_titel": "Chronicon cum Continuatione Treverensi", "quellen_id": "0013", "period_from": "801-01-01", "period_to": "801-12-31", "place": "Barcelona", "auffaelligkeiten": ["Eroberung","Einnahme","Gefangennahme","Verbannung"]}},
{"circle":
{"coordinates": [40.4636670,-3.7492200], "werk_id": "0008", "werk_titel": "Chronicon cum Continuatione Treverensi", "quellen_id": "0013", "period_from": "801-01-01", "period_to": "801-12-31", "place": "Spanien", "auffaelligkeiten": ["Eroberung","Einnahme","Gefangennahme","Verbannung"]}},
{"circle":
{"coordinates": [41.8719400,12.5673800], "werk_id": "0008", "werk_titel": "Chronicon cum Continuatione Treverensi", "quellen_id": "0013", "period_from": "801-01-01", "period_to": "801-12-31", "place": "Italien", "auffaelligkeiten": ["Eroberung","Einnahme","Gefangennahme","Verbannung"]}},
{"circle":
{"coordinates": [42.3478860,14.1635845], "werk_id": "0008", "werk_titel": "Chronicon cum Continuatione Treverensi", "quellen_id": "0013", "period_from": "801-01-01", "period_to": "801-12-31", "place": "Chieti", "auffaelligkeiten": ["Eroberung","Einnahme","Gefangennahme","Verbannung"]}},
{"circle":
{"coordinates": [44.4183598,12.2035294], "werk_id": "0008", "werk_titel": "Chronicon cum Continuatione Treverensi", "quellen_id": "0014", "period_from": "801-01-01", "period_to": "801-12-31", "place": "Ravenna", "auffaelligkeiten": ["Gesandtschaft","Geschenke","Elefant"]}},
{"circle":
{"coordinates": [43.7228386,10.4016888], "werk_id": "0008", "werk_titel": "Chronicon cum Continuatione Treverensi", "quellen_id": "0014", "period_from": "801-01-01", "period_to": "801-12-31", "place": "Pisa", "auffaelligkeiten": ["Gesandtschaft","Geschenke","Elefant"]}},
{"circle":
{"coordinates": [45.3202272,8.4185735], "werk_id": "0008", "werk_titel": "Chronicon cum Continuatione Treverensi", "quellen_id": "0014", "period_from": "801-01-01", "period_to": "801-12-31", "place": "Vercelli", "auffaelligkeiten": ["Gesandtschaft","Geschenke","Elefant"]}},
{"circle":
{"coordinates": [45.4672764,7.8800589], "werk_id": "0008", "werk_titel": "Chronicon cum Continuatione Treverensi", "quellen_id": "0014", "period_from": "801-01-01", "period_to": "801-12-31", "place": "Ivrea", "auffaelligkeiten": ["Gesandtschaft","Geschenke","Elefant"]}},
{"circle":
{"coordinates": [-8.7831950,34.5085230], "werk_id": "0008", "werk_titel": "Chronicon cum Continuatione Treverensi", "quellen_id": "0014", "period_from": "801-01-01", "period_to": "801-12-31", "place": "Afrika", "auffaelligkeiten": ["Gesandtschaft","Geschenke","Elefant"]}},
{"circle":
{"coordinates": [30.0000000,31.2333330], "werk_id": "0008", "werk_titel": "Chronicon cum Continuatione Treverensi", "quellen_id": "0014", "period_from": "801-01-01", "period_to": "801-12-31", "place": "Fostat", "auffaelligkeiten": ["Gesandtschaft","Geschenke","Elefant"]}},
{"circle":
{"coordinates": [44.3167917,8.3964938], "werk_id": "0008", "werk_titel": "Chronicon cum Continuatione Treverensi", "quellen_id": "0014", "period_from": "801-01-01", "period_to": "801-12-31", "place": "Ligurien", "auffaelligkeiten": ["Gesandtschaft","Geschenke","Elefant"]}},
{"circle":
{"coordinates": [42.0396042,9.0128926], "werk_id": "0008", "werk_titel": "Chronicon cum Continuatione Treverensi", "quellen_id": "0016", "period_from": "806-01-01", "period_to": "806-12-31", "place": "Korsika", "auffaelligkeiten": ["Bündnis","Kampfhandlung","Flotte","Zerstörung","Tod"]}},
{"circle":
{"coordinates": [47.6032620,7.3549190], "werk_id": "0008", "werk_titel": "Chronicon cum Continuatione Treverensi", "quellen_id": "0016", "period_from": "806-01-01", "period_to": "806-12-31", "place": "Franken", "auffaelligkeiten": ["Bündnis","Kampfhandlung","Flotte","Zerstörung","Tod"]}},
{"circle":
{"coordinates": [44.4056499,8.9462560], "werk_id": "0008", "werk_titel": "Chronicon cum Continuatione Treverensi", "quellen_id": "0016", "period_from": "806-01-01", "period_to": "806-12-31", "place": "Genua", "auffaelligkeiten": ["Bündnis","Kampfhandlung","Flotte","Zerstörung","Tod"]}},
{"circle":
{"coordinates": [40.4636670,-3.7492200], "werk_id": "0008", "werk_titel": "Chronicon cum Continuatione Treverensi", "quellen_id": "0016", "period_from": "806-01-01", "period_to": "806-12-31", "place": "Spanien", "auffaelligkeiten": ["Bündnis","Kampfhandlung","Flotte","Zerstörung","Tod"]}},
{"circle":
{"coordinates": [31.7683190,35.2137100], "werk_id": "0008", "werk_titel": "Chronicon cum Continuatione Treverensi", "quellen_id": "0017", "period_from": "807-01-01", "period_to": "807-12-31", "place": "Jerusalem", "auffaelligkeiten": ["Gesandtschaft"]}},
{"circle":
{"coordinates": [42.0396042,9.0128926], "werk_id": "0008", "werk_titel": "Chronicon cum Continuatione Treverensi", "quellen_id": "0018", "period_from": "807-01-01", "period_to": "807-12-31", "place": "Korsika", "auffaelligkeiten": ["Rückschlag","Niederlage","Flotte","Schutzmaßnahme"]}},
{"circle":
{"coordinates": [40.4636670,-3.7492200], "werk_id": "0008", "werk_titel": "Chronicon cum Continuatione Treverensi", "quellen_id": "0018", "period_from": "807-01-01", "period_to": "807-12-31", "place": "Spanien", "auffaelligkeiten": ["Rückschlag","Niederlage","Flotte","Schutzmaßnahme"]}},
{"circle":
{"coordinates": [40.1208752,9.0128926], "werk_id": "0008", "werk_titel": "Chronicon cum Continuatione Treverensi", "quellen_id": "0018", "period_from": "807-01-01", "period_to": "807-12-31", "place": "Sardinien", "auffaelligkeiten": ["Rückschlag","Niederlage","Flotte","Schutzmaßnahme"]}},
{"circle":
{"coordinates": [40.4636670,-3.7492200], "werk_id": "0008", "werk_titel": "Chronicon cum Continuatione Treverensi", "quellen_id": "0019", "period_from": "809-01-01", "period_to": "809-12-31", "place": "Spanien", "auffaelligkeiten": ["Bedrohung","Invasion","Überfall"]}},
{"circle":
{"coordinates": [42.0396042,9.0128926], "werk_id": "0008", "werk_titel": "Chronicon cum Continuatione Treverensi", "quellen_id": "0019", "period_from": "809-01-01", "period_to": "809-12-31", "place": "Korsika", "auffaelligkeiten": ["Bedrohung","Invasion","Überfall"]}},
{"circle":
{"coordinates": [40.4636670,-3.7492200], "werk_id": "0008", "werk_titel": "Chronicon cum Continuatione Treverensi", "quellen_id": "0020", "period_from": "810-01-01", "period_to": "810-12-31", "place": "Spanien", "auffaelligkeiten": ["Invasion","Eroberung"]}},
{"circle":
{"coordinates": [40.1208752,9.0128926], "werk_id": "0008", "werk_titel": "Chronicon cum Continuatione Treverensi", "quellen_id": "0020", "period_from": "810-01-01", "period_to": "810-12-31", "place": "Sardinien", "auffaelligkeiten": ["Invasion","Eroberung"]}},
{"circle":
{"coordinates": [42.0396042,9.0128926], "werk_id": "0008", "werk_titel": "Chronicon cum Continuatione Treverensi", "quellen_id": "0020", "period_from": "810-01-01", "period_to": "810-12-31", "place": "Korsika", "auffaelligkeiten": ["Invasion","Eroberung"]}},
{"circle":
{"coordinates": [41.0082376,28.9783589], "werk_id": "0008", "werk_titel": "Chronicon cum Continuatione Treverensi", "quellen_id": "0022", "period_from": "810-01-01", "period_to": "810-12-31", "place": "Konstantinopel", "auffaelligkeiten": ["Gesandtschaften","Freilassung"]}},
{"circle":
{"coordinates": [37.8881751,-4.7793835], "werk_id": "0008", "werk_titel": "Chronicon cum Continuatione Treverensi", "quellen_id": "0022", "period_from": "810-01-01", "period_to": "810-12-31", "place": "Cordoba", "auffaelligkeiten": ["Gesandtschaften","Freilassung"]}},
{"circle":
{"coordinates": [50.7753455,6.0838868], "werk_id": "0008", "werk_titel": "Chronicon cum Continuatione Treverensi", "quellen_id": "0022", "period_from": "810-01-01", "period_to": "810-12-31", "place": "Aachen", "auffaelligkeiten": ["Gesandtschaften","Freilassung"]}},
{"circle":
{"coordinates": [45.4408474,12.3155151], "werk_id": "0008", "werk_titel": "Chronicon cum Continuatione Treverensi", "quellen_id": "0022", "period_from": "810-01-01", "period_to": "810-12-31", "place": "Venedig", "auffaelligkeiten": ["Gesandtschaften","Freilassung"]}},
{"circle":
{"coordinates": [42.0396042,9.0128926], "werk_id": "0008", "werk_titel": "Chronicon cum Continuatione Treverensi", "quellen_id": "0023", "period_from": "810-01-01", "period_to": "810-12-31", "place": "Korsika", "auffaelligkeiten": ["Invasion","Zerstörung"]}},
{"circle":
{"coordinates": [41.1297613,14.7826208], "werk_id": "0008", "werk_titel": "Chronicon cum Continuatione Treverensi", "quellen_id": "0024", "period_from": "841-01-01", "period_to": "867-12-31", "place": "Benevent", "auffaelligkeiten": ["Kampfhandlung","Hilfe","Heeresaufgebot","Seuche","Krankheit","Zerstörung","Tod","Gottesurteil"]}},
{"circle":
{"coordinates": [-8.7831950,34.5085230], "werk_id": "0008", "werk_titel": "Chronicon cum Continuatione Treverensi", "quellen_id": "0024", "period_from": "841-01-01", "period_to": "867-12-31", "place": "Afrika", "auffaelligkeiten": ["Kampfhandlung","Hilfe","Heeresaufgebot","Seuche","Krankheit","Zerstörung","Tod","Gottesurteil"]}},
{"circle":
{"coordinates": [43.9516850,-0.3696680], "werk_id": "0008", "werk_titel": "Chronicon cum Continuatione Treverensi", "quellen_id": "0024", "period_from": "841-01-01", "period_to": "867-12-31", "place": "Gallien", "auffaelligkeiten": ["Kampfhandlung","Hilfe","Heeresaufgebot","Seuche","Krankheit","Zerstörung","Tod","Gottesurteil"]}},
{"circle":
{"coordinates": [47.6032620,7.3549190], "werk_id": "0008", "werk_titel": "Chronicon cum Continuatione Treverensi", "quellen_id": "0024", "period_from": "841-01-01", "period_to": "867-12-31", "place": "Franken", "auffaelligkeiten": ["Kampfhandlung","Hilfe","Heeresaufgebot","Seuche","Krankheit","Zerstörung","Tod","Gottesurteil"]}},
{"circle":
{"coordinates": [-8.7831950,34.5085230], "werk_id": "0009", "werk_titel": "Historiarum libri quinque", "quellen_id": "0001", "period_from": "936-01-01", "period_to": "973-12-31", "place": "Afrika", "auffaelligkeiten": ["Invasion","Plünderung","Zerstörung"]}},
{"circle":
{"coordinates": [46.8876191,9.6569996], "werk_id": "0009", "werk_titel": "Historiarum libri quinque", "quellen_id": "0001", "period_from": "936-01-01", "period_to": "973-12-31", "place": "Alpen", "auffaelligkeiten": ["Invasion","Plünderung","Zerstörung"]}},
{"circle":
{"coordinates": [41.8719400,12.5673800], "werk_id": "0009", "werk_titel": "Historiarum libri quinque", "quellen_id": "0002", "period_from": "971-01-01", "period_to": "971-12-31", "place": "Italien", "auffaelligkeiten": ["Gefangennahme","Kampfhandlung","Vertreibung","Freilassung"]}},
{"circle":
{"coordinates": [46.8876191,9.6569996], "werk_id": "0009", "werk_titel": "Historiarum libri quinque", "quellen_id": "0002", "period_from": "971-01-01", "period_to": "971-12-31", "place": "Alpen", "auffaelligkeiten": ["Gefangennahme","Kampfhandlung","Vertreibung","Freilassung"]}},
{"circle":
{"coordinates": [46.4289680,4.6645550], "werk_id": "0009", "werk_titel": "Historiarum libri quinque", "quellen_id": "0002", "period_from": "971-01-01", "period_to": "971-12-31", "place": "Cluny", "auffaelligkeiten": ["Gefangennahme","Kampfhandlung","Vertreibung","Freilassung"]}},
{"circle":
{"coordinates": [43.3178000,6.4690760], "werk_id": "0009", "werk_titel": "Historiarum libri quinque", "quellen_id": "0002", "period_from": "971-01-01", "period_to": "971-12-31", "place": "La Garde-Freinet", "auffaelligkeiten": ["Gefangennahme","Kampfhandlung","Vertreibung","Freilassung"]}},
{"circle":
{"coordinates": [41.8719400,12.5673800], "werk_id": "0009", "werk_titel": "Historiarum libri quinque", "quellen_id": "0002", "period_from": "972-01-01", "period_to": "972-12-31", "place": "Italien", "auffaelligkeiten": ["Gefangennahme","Kampfhandlung","Vertreibung","Freilassung"]}},
{"circle":
{"coordinates": [46.8876191,9.6569996], "werk_id": "0009", "werk_titel": "Historiarum libri quinque", "quellen_id": "0002", "period_from": "972-01-01", "period_to": "972-12-31", "place": "Alpen", "auffaelligkeiten": ["Gefangennahme","Kampfhandlung","Vertreibung","Freilassung"]}},
{"circle":
{"coordinates": [46.4289680,4.6645550], "werk_id": "0009", "werk_titel": "Historiarum libri quinque", "quellen_id": "0002", "period_from": "972-01-01", "period_to": "972-12-31", "place": "Cluny", "auffaelligkeiten": ["Gefangennahme","Kampfhandlung","Vertreibung","Freilassung"]}},
{"circle":
{"coordinates": [43.3178000,6.4690760], "werk_id": "0009", "werk_titel": "Historiarum libri quinque", "quellen_id": "0002", "period_from": "972-01-01", "period_to": "972-12-31", "place": "La Garde-Freinet", "auffaelligkeiten": ["Gefangennahme","Kampfhandlung","Vertreibung","Freilassung"]}},
{"circle":
{"coordinates": [40.4636670,-3.7492200], "werk_id": "0009", "werk_titel": "Historiarum libri quinque", "quellen_id": "0003", "period_from": "929-01-01", "period_to": "961-12-31", "place": "Spanien", "auffaelligkeiten": ["Überfall","Plünderung","Kampfhandlung"]}},
{"circle":
{"coordinates": [41.8719400,12.5673800], "werk_id": "0009", "werk_titel": "Historiarum libri quinque", "quellen_id": "0003", "period_from": "929-01-01", "period_to": "961-12-31", "place": "Italien", "auffaelligkeiten": ["Überfall","Plünderung","Kampfhandlung"]}},
{"circle":
{"coordinates": [41.1297613,14.7826208], "werk_id": "0009", "werk_titel": "Historiarum libri quinque", "quellen_id": "0003", "period_from": "929-01-01", "period_to": "961-12-31", "place": "Benevent", "auffaelligkeiten": ["Überfall","Plünderung","Kampfhandlung"]}},
{"circle":
{"coordinates": [-8.7831950,34.5085230], "werk_id": "0009", "werk_titel": "Historiarum libri quinque", "quellen_id": "0003", "period_from": "929-01-01", "period_to": "961-12-31", "place": "Afrika", "auffaelligkeiten": ["Überfall","Plünderung","Kampfhandlung"]}},
{"circle":
{"coordinates": [40.4636670,-3.7492200], "werk_id": "0009", "werk_titel": "Historiarum libri quinque", "quellen_id": "0003", "period_from": "978-01-01", "period_to": "1002-12-31", "place": "Spanien", "auffaelligkeiten": ["Überfall","Plünderung","Kampfhandlung"]}},
{"circle":
{"coordinates": [41.8719400,12.5673800], "werk_id": "0009", "werk_titel": "Historiarum libri quinque", "quellen_id": "0003", "period_from": "978-01-01", "period_to": "1002-12-31", "place": "Italien", "auffaelligkeiten": ["Überfall","Plünderung","Kampfhandlung"]}},
{"circle":
{"coordinates": [41.1297613,14.7826208], "werk_id": "0009", "werk_titel": "Historiarum libri quinque", "quellen_id": "0003", "period_from": "978-01-01", "period_to": "1002-12-31", "place": "Benevent", "auffaelligkeiten": ["Überfall","Plünderung","Kampfhandlung"]}},
{"circle":
{"coordinates": [-8.7831950,34.5085230], "werk_id": "0009", "werk_titel": "Historiarum libri quinque", "quellen_id": "0003", "period_from": "978-01-01", "period_to": "1002-12-31", "place": "Afrika", "auffaelligkeiten": ["Überfall","Plünderung","Kampfhandlung"]}},
{"circle":
{"coordinates": [-8.7831950,34.5085230], "werk_id": "0009", "werk_titel": "Historiarum libri quinque", "quellen_id": "0004", "period_from": "1000-01-01", "period_to": "1002-12-31", "place": "Afrika", "auffaelligkeiten": ["Invasion","Kampfhandlung","Überfall","Tod","Vertreibung","Sieg","Zerstörung","Schutzmaßnahme"]}},
{"circle":
{"coordinates": [40.4636670,-3.7492200], "werk_id": "0009", "werk_titel": "Historiarum libri quinque", "quellen_id": "0004", "period_from": "1000-01-01", "period_to": "1002-12-31", "place": "Spanien", "auffaelligkeiten": ["Invasion","Kampfhandlung","Überfall","Tod","Vertreibung","Sieg","Zerstörung","Schutzmaßnahme"]}},
{"circle":
{"coordinates": [43.9516850,-0.3696680], "werk_id": "0009", "werk_titel": "Historiarum libri quinque", "quellen_id": "0004", "period_from": "1000-01-01", "period_to": "1002-12-31", "place": "Gallien", "auffaelligkeiten": ["Invasion","Kampfhandlung","Überfall","Tod","Vertreibung","Sieg","Zerstörung","Schutzmaßnahme"]}},
{"circle":
{"coordinates": [47.5604900,4.2215500], "werk_id": "0009", "werk_titel": "Historiarum libri quinque", "quellen_id": "0005", "period_from": "995-01-01", "period_to": "1002-12-31", "place": "Réome", "auffaelligkeiten": ["Kampfhandlung","Vorzeichen"]}},
{"circle":
{"coordinates": [47.8567240,3.9735270], "werk_id": "0009", "werk_titel": "Historiarum libri quinque", "quellen_id": "0005", "period_from": "995-01-01", "period_to": "1002-12-31", "place": "Tonnerre", "auffaelligkeiten": ["Kampfhandlung","Vorzeichen"]}},
{"circle":
{"coordinates": [31.7683190,35.2137100], "werk_id": "0009", "werk_titel": "Historiarum libri quinque", "quellen_id": "0006", "period_from": "1010-01-01", "period_to": "1010-12-31", "place": "Jerusalem", "auffaelligkeiten": ["Überfall","Zerstörung","Hinterhalt/-list","Heilige Stätte","Heiligenschändung"]}},
{"circle":
{"coordinates": [31.9315660,34.8729380], "werk_id": "0009", "werk_titel": "Historiarum libri quinque", "quellen_id": "0006", "period_from": "1010-01-01", "period_to": "1010-12-31", "place": "Ramla", "auffaelligkeiten": ["Überfall","Zerstörung","Hinterhalt/-list","Heilige Stätte","Heiligenschändung"]}},
{"circle":
{"coordinates": [-8.7831950,34.5085230], "werk_id": "0009", "werk_titel": "Historiarum libri quinque", "quellen_id": "0008", "period_from": "1002-01-01", "period_to": "1002-12-31", "place": "Afrika", "auffaelligkeiten": ["Invasion","Kampfhandlung","Sieg","Tod","Gottesurteil"]}},
{"circle":
{"coordinates": [43.2964820,5.3697800], "werk_id": "0010", "werk_titel": "Annales Bertiniani", "quellen_id": "0001", "period_from": "838-05-20", "period_to": "838-05-10", "place": "Marseille", "auffaelligkeiten": ["Überfall","Plünderung","Gefangennahme","Flotte"]}},
{"circle":
{"coordinates": [44.0144936,6.2116438], "werk_id": "0010", "werk_titel": "Annales Bertiniani", "quellen_id": "0001", "period_from": "838-05-20", "period_to": "838-05-10", "place": "Provence", "auffaelligkeiten": ["Überfall","Plünderung","Gefangennahme","Flotte"]}},
{"circle":
{"coordinates": [44.7719843,5.3726512], "werk_id": "0010", "werk_titel": "Annales Bertiniani", "quellen_id": "0002", "period_from": "842-01-01", "period_to": "842-12-31", "place": "Rhône", "auffaelligkeiten": ["Überfall","Plünderung","Beute","Flotte"]}},
{"circle":
{"coordinates": [43.6766470,4.6277769], "werk_id": "0010", "werk_titel": "Annales Bertiniani", "quellen_id": "0002", "period_from": "842-01-01", "period_to": "842-12-31", "place": "Arles", "auffaelligkeiten": ["Überfall","Plünderung","Beute","Flotte"]}},
{"circle":
{"coordinates": [-8.7831950,34.5085230], "werk_id": "0010", "werk_titel": "Annales Bertiniani", "quellen_id": "0003", "period_from": "842-01-01", "period_to": "842-12-31", "place": "Afrika", "auffaelligkeiten": ["Hilfe","Bedrohung","Eroberung","Hinterhalt/-list","Unterwerfung"]}},
{"circle":
{"coordinates": [41.1297613,14.7826208], "werk_id": "0010", "werk_titel": "Annales Bertiniani", "quellen_id": "0004", "period_from": "843-01-01", "period_to": "843-12-31", "place": "Benevent", "auffaelligkeiten": ["Sieg","Vertreibung","Gottesurteil"]}},
{"circle":
{"coordinates": [43.8670244,0.4172706], "werk_id": "0010", "werk_titel": "Annales Bertiniani", "quellen_id": "0006", "period_from": "844-01-01", "period_to": "844-12-31", "place": "Garonne", "auffaelligkeiten": ["Überfall","Bedrohung","Plünderung","Kampfhandlung","Niederlage"]}},
{"circle":
{"coordinates": [43.6046520,1.4442090], "werk_id": "0010", "werk_titel": "Annales Bertiniani", "quellen_id": "0006", "period_from": "844-01-01", "period_to": "844-12-31", "place": "Toulouse", "auffaelligkeiten": ["Überfall","Bedrohung","Plünderung","Kampfhandlung","Niederlage"]}},
{"circle":
{"coordinates": [42.5750554,-8.1338558], "werk_id": "0010", "werk_titel": "Annales Bertiniani", "quellen_id": "0006", "period_from": "844-01-01", "period_to": "844-12-31", "place": "Galizien", "auffaelligkeiten": ["Überfall","Bedrohung","Plünderung","Kampfhandlung","Niederlage"]}},
{"circle":
{"coordinates": [40.4636670,-3.7492200], "werk_id": "0010", "werk_titel": "Annales Bertiniani", "quellen_id": "0006", "period_from": "844-01-01", "period_to": "844-12-31", "place": "Spanien", "auffaelligkeiten": ["Überfall","Bedrohung","Plünderung","Kampfhandlung","Niederlage"]}},
{"circle":
{"coordinates": [41.9027835,12.4963655], "werk_id": "0010", "werk_titel": "Annales Bertiniani", "quellen_id": "0008", "period_from": "846-01-01", "period_to": "846-12-31", "place": "Rom", "auffaelligkeiten": ["Plünderung","Zerstörung","Heilige Stätte","Überfall","Auseinandersetzung","Sieg","Heiligenschändung"]}},
{"circle":
{"coordinates": [41.9027835,12.4963655], "werk_id": "0010", "werk_titel": "Annales Bertiniani", "quellen_id": "0009", "period_from": "846-01-01", "period_to": "846-12-31", "place": "Rom", "auffaelligkeiten": ["Kampfhandlung","Niederlage","Rückschlag"]}},
{"circle":
{"coordinates": [37.8881751,-4.7793835], "werk_id": "0010", "werk_titel": "Annales Bertiniani", "quellen_id": "0010", "period_from": "847-01-01", "period_to": "847-12-31", "place": "Cordoba", "auffaelligkeiten": ["Gesandtschaft","Verhandlungen","Frieden"]}},
{"circle":
{"coordinates": [40.4636670,-3.7492200], "werk_id": "0010", "werk_titel": "Annales Bertiniani", "quellen_id": "0010", "period_from": "847-01-01", "period_to": "847-12-31", "place": "Spanien", "auffaelligkeiten": ["Gesandtschaft","Verhandlungen","Frieden"]}},
{"circle":
{"coordinates": [49.2583290,4.0316960], "werk_id": "0010", "werk_titel": "Annales Bertiniani", "quellen_id": "0010", "period_from": "847-01-01", "period_to": "847-12-31", "place": "Reims", "auffaelligkeiten": ["Gesandtschaft","Verhandlungen","Frieden"]}},
{"circle":
{"coordinates": [40.4636670,-3.7492200], "werk_id": "0010", "werk_titel": "Annales Bertiniani", "quellen_id": "0011", "period_from": "847-01-01", "period_to": "847-12-31", "place": "Spanien", "auffaelligkeiten": ["Bedrohung","Missionierung","Verrat","Tod","Hilfe","Christenverfolgung"]}},
{"circle":
{"coordinates": [41.9027835,12.4963655], "werk_id": "0010", "werk_titel": "Annales Bertiniani", "quellen_id": "0012", "period_from": "847-01-01", "period_to": "847-12-31", "place": "Rom", "auffaelligkeiten": ["Wiedergutmachung","Heilige Stätte","Heiligenschändung","Flotte","Gottesurteil","Tod"]}},
{"circle":
{"coordinates": [41.1297613,14.7826208], "werk_id": "0010", "werk_titel": "Annales Bertiniani", "quellen_id": "0013", "period_from": "847-01-01", "period_to": "847-12-31", "place": "Benevent", "auffaelligkeiten": ["Invasion","Zerstörung"]}},
{"circle":
{"coordinates": [41.9027835,12.4963655], "werk_id": "0010", "werk_titel": "Annales Bertiniani", "quellen_id": "0013", "period_from": "847-01-01", "period_to": "847-12-31", "place": "Rom", "auffaelligkeiten": ["Invasion","Zerstörung"]}},
{"circle":
{"coordinates": [41.1297613,14.7826208], "werk_id": "0010", "werk_titel": "Annales Bertiniani", "quellen_id": "0014", "period_from": "848-01-01", "period_to": "848-12-31", "place": "Benevent", "auffaelligkeiten": ["Kampfhandlung","Sieg"]}},
{"circle":
{"coordinates": [44.06002,10.00590], "werk_id": "0010", "werk_titel": "Annales Bertiniani", "quellen_id": "0015", "period_from": "849-01-01", "period_to": "849-12-31", "place": "Luna", "auffaelligkeiten": ["Invasion","Plünderung","Zerstörung"]}},
{"circle":
{"coordinates": [41.8719400,12.5673800], "werk_id": "0010", "werk_titel": "Annales Bertiniani", "quellen_id": "0015", "period_from": "849-01-01", "period_to": "849-12-31", "place": "Italien", "auffaelligkeiten": ["Invasion","Plünderung","Zerstörung"]}},
{"circle":
{"coordinates": [44.0144936,6.2116438], "werk_id": "0010", "werk_titel": "Annales Bertiniani", "quellen_id": "0015", "period_from": "849-01-01", "period_to": "849-12-31", "place": "Provence", "auffaelligkeiten": ["Invasion","Plünderung","Zerstörung"]}},
{"circle":
{"coordinates": [41.1297613,14.7826208], "werk_id": "0010", "werk_titel": "Annales Bertiniani", "quellen_id": "0016", "period_from": "851-01-01", "period_to": "851-12-31", "place": "Benevent", "auffaelligkeiten": ["Einnahme","Eroberung"]}},
{"circle":
{"coordinates": [41.9027835,12.4963655], "werk_id": "0010", "werk_titel": "Annales Bertiniani", "quellen_id": "0017", "period_from": "851-01-01", "period_to": "851-12-31", "place": "Rom", "auffaelligkeiten": ["Bedrohung","Schutzmaßnahme","Heilige Stätte"]}},
{"circle":
{"coordinates": [41.3850639,2.1734035], "werk_id": "0010", "werk_titel": "Annales Bertiniani", "quellen_id": "0018", "period_from": "852-01-01", "period_to": "852-12-31", "place": "Barcelona", "auffaelligkeiten": ["Eroberung","Einnahme","Zerstörung","Verrat","Tod","Christenverfolgung"]}},
{"circle":
{"coordinates": [41.1297613,14.7826208], "werk_id": "0010", "werk_titel": "Annales Bertiniani", "quellen_id": "0019", "period_from": "852-01-01", "period_to": "852-12-31", "place": "Benevent", "auffaelligkeiten": ["Heeresaufgebot","Belagerung","Niederlage","Schutzmaßnahme"]}},
{"circle":
{"coordinates": [41.1171488,16.8719083], "werk_id": "0010", "werk_titel": "Annales Bertiniani", "quellen_id": "0019", "period_from": "852-01-01", "period_to": "852-12-31", "place": "Bari", "auffaelligkeiten": ["Heeresaufgebot","Belagerung","Niederlage","Schutzmaßnahme"]}},
{"circle":
{"coordinates": [40.4636670,-3.7492200], "werk_id": "0010", "werk_titel": "Annales Bertiniani", "quellen_id": "0020", "period_from": "852-01-01", "period_to": "852-12-31", "place": "Spanien", "auffaelligkeiten": ["Thronfolge","Herrschaftswechsel"]}},
{"circle":
{"coordinates": [37.8881751,-4.7793835], "werk_id": "0010", "werk_titel": "Annales Bertiniani", "quellen_id": "0020", "period_from": "852-01-01", "period_to": "852-12-31", "place": "Cordoba", "auffaelligkeiten": ["Thronfolge","Herrschaftswechsel"]}},
{"circle":
{"coordinates": [41.1297613,14.7826208], "werk_id": "0010", "werk_titel": "Annales Bertiniani", "quellen_id": "0022", "period_from": "856-01-01", "period_to": "856-12-31", "place": "Benevent", "auffaelligkeiten": ["Einnahme","Eroberung","Plünderung","Hinterhalt/-list","Zerstörung"]}},
{"circle":
{"coordinates": [40.8517746,14.2681244], "werk_id": "0010", "werk_titel": "Annales Bertiniani", "quellen_id": "0022", "period_from": "856-01-01", "period_to": "856-12-31", "place": "Neapel", "auffaelligkeiten": ["Einnahme","Eroberung","Plünderung","Hinterhalt/-list","Zerstörung"]}},
{"circle":
{"coordinates": [41.1297613,14.7826208], "werk_id": "0010", "werk_titel": "Annales Bertiniani", "quellen_id": "0023", "period_from": "866-01-01", "period_to": "866-12-31", "place": "Benevent", "auffaelligkeiten": ["Heeresaufgebot","Kampfhandlung"]}},
{"circle":
{"coordinates": [41.1171488,16.8719083], "werk_id": "0010", "werk_titel": "Annales Bertiniani", "quellen_id": "0025", "period_from": "869-01-01", "period_to": "869-12-31", "place": "Bari", "auffaelligkeiten": ["Überfall","Bedrohung","Plünderung","Belagerung","Hilfe","Flotte","Hinterhalt/-list","Heilige Stätte","Rückzug"]}},
{"circle":
{"coordinates": [37.9386365,22.9322383], "werk_id": "0010", "werk_titel": "Annales Bertiniani", "quellen_id": "0025", "period_from": "869-01-01", "period_to": "869-12-31", "place": "Korinth", "auffaelligkeiten": ["Überfall","Bedrohung","Plünderung","Belagerung","Hilfe","Flotte","Hinterhalt/-list","Heilige Stätte","Rückzug"]}},
{"circle":
{"coordinates": [41.1297613,14.7826208], "werk_id": "0010", "werk_titel": "Annales Bertiniani", "quellen_id": "0025", "period_from": "869-01-01", "period_to": "869-12-31", "place": "Benevent", "auffaelligkeiten": ["Überfall","Bedrohung","Plünderung","Belagerung","Hilfe","Flotte","Hinterhalt/-list","Heilige Stätte","Rückzug"]}},
{"circle":
{"coordinates": [41.7330000,15.7500000], "werk_id": "0010", "werk_titel": "Annales Bertiniani", "quellen_id": "0025", "period_from": "869-01-01", "period_to": "869-12-31", "place": "Garganus", "auffaelligkeiten": ["Überfall","Bedrohung","Plünderung","Belagerung","Hilfe","Flotte","Hinterhalt/-list","Heilige Stätte","Rückzug"]}},
{"circle":
{"coordinates": [43.5939088,4.4689834], "werk_id": "0010", "werk_titel": "Annales Bertiniani", "quellen_id": "0026", "period_from": "869-01-01", "period_to": "869-12-31", "place": "Camargue", "auffaelligkeiten": ["Kampfhandlung","Gefangennahme","Hinterhalt/-list","Tod","Schutzmaßnahme","Invasion"]}},
{"circle":
{"coordinates": [42.6681804,1.0011899], "werk_id": "0011", "werk_titel": "Vita Hludovici Pii imperatoris", "quellen_id": "0001", "period_from": "778-01-01", "period_to": "778-12-31", "place": "Pyrenäen", "auffaelligkeiten": ["Bedrohung","Heeresaufgebot","Invasion"]}},
{"circle":
{"coordinates": [40.4636670,-3.7492200], "werk_id": "0011", "werk_titel": "Vita Hludovici Pii imperatoris", "quellen_id": "0001", "period_from": "778-01-01", "period_to": "778-12-31", "place": "Spanien", "auffaelligkeiten": ["Bedrohung","Heeresaufgebot","Invasion"]}},
{"circle":
{"coordinates": [43.6046520,1.4442090], "werk_id": "0011", "werk_titel": "Vita Hludovici Pii imperatoris", "quellen_id": "0002", "period_from": "790-01-01", "period_to": "790-12-31", "place": "Toulouse", "auffaelligkeiten": ["Gesandtschaft","Geschenke","Frieden"]}},
{"circle":
{"coordinates": [44.7002222,-0.2995785], "werk_id": "0011", "werk_titel": "Vita Hludovici Pii imperatoris", "quellen_id": "0002", "period_from": "790-01-01", "period_to": "790-12-31", "place": "Aquitanien", "auffaelligkeiten": ["Gesandtschaft","Geschenke","Frieden"]}},
{"circle":
{"coordinates": [44.7002222,-0.2995785], "werk_id": "0011", "werk_titel": "Vita Hludovici Pii imperatoris", "quellen_id": "0003", "period_from": "798-01-01", "period_to": "798-12-31", "place": "Aquitanien", "auffaelligkeiten": ["Gesandtschaft","Geschenke","Frieden"]}},
{"circle":
{"coordinates": [41.8719400,12.5673800], "werk_id": "0011", "werk_titel": "Vita Hludovici Pii imperatoris", "quellen_id": "0004", "period_from": "799-01-01", "period_to": "799-12-31", "place": "Italien", "auffaelligkeiten": ["Plünderung","Heeresaufgebot","Zerstörung","Unterwerfung","Invasion"]}},
{"circle":
{"coordinates": [41.9027835,12.4963655], "werk_id": "0011", "werk_titel": "Vita Hludovici Pii imperatoris", "quellen_id": "0004", "period_from": "799-01-01", "period_to": "799-12-31", "place": "Rom", "auffaelligkeiten": ["Plünderung","Heeresaufgebot","Zerstörung","Unterwerfung","Invasion"]}},
{"circle":
{"coordinates": [43.6046520,1.4442090], "werk_id": "0011", "werk_titel": "Vita Hludovici Pii imperatoris", "quellen_id": "0004", "period_from": "799-01-01", "period_to": "799-12-31", "place": "Toulouse", "auffaelligkeiten": ["Plünderung","Heeresaufgebot","Zerstörung","Unterwerfung","Invasion"]}},
{"circle":
{"coordinates": [40.4636670,-3.7492200], "werk_id": "0011", "werk_titel": "Vita Hludovici Pii imperatoris", "quellen_id": "0004", "period_from": "799-01-01", "period_to": "799-12-31", "place": "Spanien", "auffaelligkeiten": ["Plünderung","Heeresaufgebot","Zerstörung","Unterwerfung","Invasion"]}},
{"circle":
{"coordinates": [41.3850639,2.1734035], "werk_id": "0011", "werk_titel": "Vita Hludovici Pii imperatoris", "quellen_id": "0004", "period_from": "799-01-01", "period_to": "799-12-31", "place": "Barcelona", "auffaelligkeiten": ["Plünderung","Heeresaufgebot","Zerstörung","Unterwerfung","Invasion"]}},
{"circle":
{"coordinates": [41.6175899,0.6200146], "werk_id": "0011", "werk_titel": "Vita Hludovici Pii imperatoris", "quellen_id": "0004", "period_from": "799-01-01", "period_to": "799-12-31", "place": "Lérida", "auffaelligkeiten": ["Plünderung","Heeresaufgebot","Zerstörung","Unterwerfung","Invasion"]}},
{"circle":
{"coordinates": [42.1318450,-0.4078058], "werk_id": "0011", "werk_titel": "Vita Hludovici Pii imperatoris", "quellen_id": "0004", "period_from": "799-01-01", "period_to": "799-12-31", "place": "Huesca", "auffaelligkeiten": ["Plünderung","Heeresaufgebot","Zerstörung","Unterwerfung","Invasion"]}},
{"circle":
{"coordinates": [43.1842770,3.0030780], "werk_id": "0011", "werk_titel": "Vita Hludovici Pii imperatoris", "quellen_id": "0005", "period_from": "800-01-01", "period_to": "800-12-31", "place": "Narbonne", "auffaelligkeiten": ["Gefangennahme","Belagerung","(kulturelle) Gewohnheit","Heeresaufgebot","Niederlage","Überfall","Schutzmaßnahme","Tod","Stadtübergabe","Sieg"]}},
{"circle":
{"coordinates": [43.6046520,1.4442090], "werk_id": "0011", "werk_titel": "Vita Hludovici Pii imperatoris", "quellen_id": "0005", "period_from": "800-01-01", "period_to": "800-12-31", "place": "Toulouse", "auffaelligkeiten": ["Gefangennahme","Belagerung","(kulturelle) Gewohnheit","Heeresaufgebot","Niederlage","Überfall","Schutzmaßnahme","Tod","Stadtübergabe","Sieg"]}},
{"circle":
{"coordinates": [43.762225,0.293077], "werk_id": "0011", "werk_titel": "Vita Hludovici Pii imperatoris", "quellen_id": "0005", "period_from": "800-01-01", "period_to": "800-12-31", "place": "Fézensac", "auffaelligkeiten": ["Gefangennahme","Belagerung","(kulturelle) Gewohnheit","Heeresaufgebot","Niederlage","Überfall","Schutzmaßnahme","Tod","Stadtübergabe","Sieg"]}},
{"circle":
{"coordinates": [41.3850639,2.1734035], "werk_id": "0011", "werk_titel": "Vita Hludovici Pii imperatoris", "quellen_id": "0005", "period_from": "800-01-01", "period_to": "800-12-31", "place": "Barcelona", "auffaelligkeiten": ["Gefangennahme","Belagerung","(kulturelle) Gewohnheit","Heeresaufgebot","Niederlage","Überfall","Schutzmaßnahme","Tod","Stadtübergabe","Sieg"]}},
{"circle":
{"coordinates": [43.9022930,5.2929360], "werk_id": "0011", "werk_titel": "Vita Hludovici Pii imperatoris", "quellen_id": "0005", "period_from": "800-01-01", "period_to": "800-12-31", "place": "Roussillon", "auffaelligkeiten": ["Gefangennahme","Belagerung","(kulturelle) Gewohnheit","Heeresaufgebot","Niederlage","Überfall","Schutzmaßnahme","Tod","Stadtübergabe","Sieg"]}},
{"circle":
{"coordinates": [37.8881751,-4.7793835], "werk_id": "0011", "werk_titel": "Vita Hludovici Pii imperatoris", "quellen_id": "0005", "period_from": "800-01-01", "period_to": "800-12-31", "place": "Cordoba", "auffaelligkeiten": ["Gefangennahme","Belagerung","(kulturelle) Gewohnheit","Heeresaufgebot","Niederlage","Überfall","Schutzmaßnahme","Tod","Stadtübergabe","Sieg"]}},
{"circle":
{"coordinates": [45.7640430,4.8356590], "werk_id": "0011", "werk_titel": "Vita Hludovici Pii imperatoris", "quellen_id": "0005", "period_from": "800-01-01", "period_to": "800-12-31", "place": "Lyon", "auffaelligkeiten": ["Gefangennahme","Belagerung","(kulturelle) Gewohnheit","Heeresaufgebot","Niederlage","Überfall","Schutzmaßnahme","Tod","Stadtübergabe","Sieg"]}},
{"circle":
{"coordinates": [41.6488696,-0.8897421], "werk_id": "0011", "werk_titel": "Vita Hludovici Pii imperatoris", "quellen_id": "0005", "period_from": "800-01-01", "period_to": "800-12-31", "place": "Saragossa", "auffaelligkeiten": ["Gefangennahme","Belagerung","(kulturelle) Gewohnheit","Heeresaufgebot","Niederlage","Überfall","Schutzmaßnahme","Tod","Stadtübergabe","Sieg"]}},
{"circle":
{"coordinates": [43.1842770,3.0030780], "werk_id": "0011", "werk_titel": "Vita Hludovici Pii imperatoris", "quellen_id": "0005", "period_from": "801-01-01", "period_to": "801-12-31", "place": "Narbonne", "auffaelligkeiten": ["Gefangennahme","Belagerung","(kulturelle) Gewohnheit","Heeresaufgebot","Niederlage","Überfall","Schutzmaßnahme","Tod","Stadtübergabe","Sieg"]}},
{"circle":
{"coordinates": [43.6046520,1.4442090], "werk_id": "0011", "werk_titel": "Vita Hludovici Pii imperatoris", "quellen_id": "0005", "period_from": "801-01-01", "period_to": "801-12-31", "place": "Toulouse", "auffaelligkeiten": ["Gefangennahme","Belagerung","(kulturelle) Gewohnheit","Heeresaufgebot","Niederlage","Überfall","Schutzmaßnahme","Tod","Stadtübergabe","Sieg"]}},
{"circle":
{"coordinates": [43.762225,0.293077], "werk_id": "0011", "werk_titel": "Vita Hludovici Pii imperatoris", "quellen_id": "0005", "period_from": "801-01-01", "period_to": "801-12-31", "place": "Fézensac", "auffaelligkeiten": ["Gefangennahme","Belagerung","(kulturelle) Gewohnheit","Heeresaufgebot","Niederlage","Überfall","Schutzmaßnahme","Tod","Stadtübergabe","Sieg"]}},
{"circle":
{"coordinates": [41.3850639,2.1734035], "werk_id": "0011", "werk_titel": "Vita Hludovici Pii imperatoris", "quellen_id": "0005", "period_from": "801-01-01", "period_to": "801-12-31", "place": "Barcelona", "auffaelligkeiten": ["Gefangennahme","Belagerung","(kulturelle) Gewohnheit","Heeresaufgebot","Niederlage","Überfall","Schutzmaßnahme","Tod","Stadtübergabe","Sieg"]}},
{"circle":
{"coordinates": [43.9022930,5.2929360], "werk_id": "0011", "werk_titel": "Vita Hludovici Pii imperatoris", "quellen_id": "0005", "period_from": "801-01-01", "period_to": "801-12-31", "place": "Roussillon", "auffaelligkeiten": ["Gefangennahme","Belagerung","(kulturelle) Gewohnheit","Heeresaufgebot","Niederlage","Überfall","Schutzmaßnahme","Tod","Stadtübergabe","Sieg"]}},
{"circle":
{"coordinates": [37.8881751,-4.7793835], "werk_id": "0011", "werk_titel": "Vita Hludovici Pii imperatoris", "quellen_id": "0005", "period_from": "801-01-01", "period_to": "801-12-31", "place": "Cordoba", "auffaelligkeiten": ["Gefangennahme","Belagerung","(kulturelle) Gewohnheit","Heeresaufgebot","Niederlage","Überfall","Schutzmaßnahme","Tod","Stadtübergabe","Sieg"]}},
{"circle":
{"coordinates": [45.7640430,4.8356590], "werk_id": "0011", "werk_titel": "Vita Hludovici Pii imperatoris", "quellen_id": "0005", "period_from": "801-01-01", "period_to": "801-12-31", "place": "Lyon", "auffaelligkeiten": ["Gefangennahme","Belagerung","(kulturelle) Gewohnheit","Heeresaufgebot","Niederlage","Überfall","Schutzmaßnahme","Tod","Stadtübergabe","Sieg"]}},
{"circle":
{"coordinates": [41.6488696,-0.8897421], "werk_id": "0011", "werk_titel": "Vita Hludovici Pii imperatoris", "quellen_id": "0005", "period_from": "801-01-01", "period_to": "801-12-31", "place": "Saragossa", "auffaelligkeiten": ["Gefangennahme","Belagerung","(kulturelle) Gewohnheit","Heeresaufgebot","Niederlage","Überfall","Schutzmaßnahme","Tod","Stadtübergabe","Sieg"]}},
{"circle":
{"coordinates": [40.4636670,-3.7492200], "werk_id": "0011", "werk_titel": "Vita Hludovici Pii imperatoris", "quellen_id": "0006", "period_from": "803-01-01", "period_to": "813-12-31", "place": "Spanien", "auffaelligkeiten": ["Kriegszug","Kampfhandlung","Verwüstung","Plünderung","Beute","Heeresaufgebot","Zerstörung","Hinterhalt/-list","Sieg","Gottesurteil"]}},
{"circle":
{"coordinates": [41.3850639,2.1734035], "werk_id": "0011", "werk_titel": "Vita Hludovici Pii imperatoris", "quellen_id": "0006", "period_from": "803-01-01", "period_to": "813-12-31", "place": "Barcelona", "auffaelligkeiten": ["Kriegszug","Kampfhandlung","Verwüstung","Plünderung","Beute","Heeresaufgebot","Zerstörung","Hinterhalt/-list","Sieg","Gottesurteil"]}},
{"circle":
{"coordinates": [41.1188827,1.2444909], "werk_id": "0011", "werk_titel": "Vita Hludovici Pii imperatoris", "quellen_id": "0006", "period_from": "803-01-01", "period_to": "813-12-31", "place": "Tarragona", "auffaelligkeiten": ["Kriegszug","Kampfhandlung","Verwüstung","Plünderung","Beute","Heeresaufgebot","Zerstörung","Hinterhalt/-list","Sieg","Gottesurteil"]}},
{"circle":
{"coordinates": [40.8125777,0.5214423], "werk_id": "0011", "werk_titel": "Vita Hludovici Pii imperatoris", "quellen_id": "0006", "period_from": "803-01-01", "period_to": "813-12-31", "place": "Tortosa", "auffaelligkeiten": ["Kriegszug","Kampfhandlung","Verwüstung","Plünderung","Beute","Heeresaufgebot","Zerstörung","Hinterhalt/-list","Sieg","Gottesurteil"]}},
{"circle":
{"coordinates": [41.8552074,-1.6587714], "werk_id": "0011", "werk_titel": "Vita Hludovici Pii imperatoris", "quellen_id": "0006", "period_from": "803-01-01", "period_to": "813-12-31", "place": "Ebro", "auffaelligkeiten": ["Kriegszug","Kampfhandlung","Verwüstung","Plünderung","Beute","Heeresaufgebot","Zerstörung","Hinterhalt/-list","Sieg","Gottesurteil"]}},
{"circle":
{"coordinates": [41.72260,0.14774], "werk_id": "0011", "werk_titel": "Vita Hludovici Pii imperatoris", "quellen_id": "0006", "period_from": "803-01-01", "period_to": "813-12-31", "place": "Cinca", "auffaelligkeiten": ["Kriegszug","Kampfhandlung","Verwüstung","Plünderung","Beute","Heeresaufgebot","Zerstörung","Hinterhalt/-list","Sieg","Gottesurteil"]}},
{"circle":
{"coordinates": [45.4580190,6.0748040], "werk_id": "0011", "werk_titel": "Vita Hludovici Pii imperatoris", "quellen_id": "0006", "period_from": "803-01-01", "period_to": "813-12-31", "place": "Villa Rubea", "auffaelligkeiten": ["Kriegszug","Kampfhandlung","Verwüstung","Plünderung","Beute","Heeresaufgebot","Zerstörung","Hinterhalt/-list","Sieg","Gottesurteil"]}},
{"circle":
{"coordinates": [40.812157,0.519882], "werk_id": "0011", "werk_titel": "Vita Hludovici Pii imperatoris", "quellen_id": "0006", "period_from": "803-01-01", "period_to": "813-12-31", "place": "Valla Ibana", "auffaelligkeiten": ["Kriegszug","Kampfhandlung","Verwüstung","Plünderung","Beute","Heeresaufgebot","Zerstörung","Hinterhalt/-list","Sieg","Gottesurteil"]}},
{"circle":
{"coordinates": [40.4636670,-3.7492200], "werk_id": "0011", "werk_titel": "Vita Hludovici Pii imperatoris", "quellen_id": "0007", "period_from": "808-01-01", "period_to": "808-12-31", "place": "Spanien", "auffaelligkeiten": ["Heeresaufgebot","Invasion","Hinterhalt/-list","Tod","Flucht","Kampfhandlung","Gottesurteil"]}},
{"circle":
{"coordinates": [44.7719843,5.3726512], "werk_id": "0011", "werk_titel": "Vita Hludovici Pii imperatoris", "quellen_id": "0007", "period_from": "808-01-01", "period_to": "808-12-31", "place": "Rhône", "auffaelligkeiten": ["Heeresaufgebot","Invasion","Hinterhalt/-list","Tod","Flucht","Kampfhandlung","Gottesurteil"]}},
{"circle":
{"coordinates": [43.8670244,0.4172706], "werk_id": "0011", "werk_titel": "Vita Hludovici Pii imperatoris", "quellen_id": "0007", "period_from": "808-01-01", "period_to": "808-12-31", "place": "Garonne", "auffaelligkeiten": ["Heeresaufgebot","Invasion","Hinterhalt/-list","Tod","Flucht","Kampfhandlung","Gottesurteil"]}},
{"circle":
{"coordinates": [46.3325972,1.0445270], "werk_id": "0011", "werk_titel": "Vita Hludovici Pii imperatoris", "quellen_id": "0007", "period_from": "808-01-01", "period_to": "808-12-31", "place": "Loire", "auffaelligkeiten": ["Heeresaufgebot","Invasion","Hinterhalt/-list","Tod","Flucht","Kampfhandlung","Gottesurteil"]}},
{"circle":
{"coordinates": [44.7002222,-0.2995785], "werk_id": "0011", "werk_titel": "Vita Hludovici Pii imperatoris", "quellen_id": "0007", "period_from": "808-01-01", "period_to": "808-12-31", "place": "Aquitanien", "auffaelligkeiten": ["Heeresaufgebot","Invasion","Hinterhalt/-list","Tod","Flucht","Kampfhandlung","Gottesurteil"]}},
{"circle":
{"coordinates": [41.3850639,2.1734035], "werk_id": "0011", "werk_titel": "Vita Hludovici Pii imperatoris", "quellen_id": "0007", "period_from": "808-01-01", "period_to": "808-12-31", "place": "Barcelona", "auffaelligkeiten": ["Heeresaufgebot","Invasion","Hinterhalt/-list","Tod","Flucht","Kampfhandlung","Gottesurteil"]}},
{"circle":
{"coordinates": [40.8125777,0.5214423], "werk_id": "0011", "werk_titel": "Vita Hludovici Pii imperatoris", "quellen_id": "0007", "period_from": "808-01-01", "period_to": "808-12-31", "place": "Tortosa", "auffaelligkeiten": ["Heeresaufgebot","Invasion","Hinterhalt/-list","Tod","Flucht","Kampfhandlung","Gottesurteil"]}},
{"circle":
{"coordinates": [41.8552074,-1.6587714], "werk_id": "0011", "werk_titel": "Vita Hludovici Pii imperatoris", "quellen_id": "0007", "period_from": "808-01-01", "period_to": "808-12-31", "place": "Ebro", "auffaelligkeiten": ["Heeresaufgebot","Invasion","Hinterhalt/-list","Tod","Flucht","Kampfhandlung","Gottesurteil"]}},
{"circle":
{"coordinates": [40.8125777,0.5214423], "werk_id": "0011", "werk_titel": "Vita Hludovici Pii imperatoris", "quellen_id": "0008", "period_from": "809-01-01", "period_to": "809-12-31", "place": "Tortosa", "auffaelligkeiten": ["Belagerung","Eroberung","Heeresaufgebot","Stadtübergabe"]}},
{"circle":
{"coordinates": [42.1318450,-0.4078058], "werk_id": "0011", "werk_titel": "Vita Hludovici Pii imperatoris", "quellen_id": "0009", "period_from": "811-01-01", "period_to": "811-12-31", "place": "Huesca", "auffaelligkeiten": ["Belagerung","Kampfhandlung","Heeresaufgebot","Gefangennahme","Vertreibung"]}},
{"circle":
{"coordinates": [49.4178160,2.8261450], "werk_id": "0011", "werk_titel": "Vita Hludovici Pii imperatoris", "quellen_id": "0012", "period_from": "816-01-01", "period_to": "816-12-31", "place": "Compiègne", "auffaelligkeiten": ["Gesandtschaft"]}},
{"circle":
{"coordinates": [50.7753455,6.0838868], "werk_id": "0011", "werk_titel": "Vita Hludovici Pii imperatoris", "quellen_id": "0012", "period_from": "816-01-01", "period_to": "816-12-31", "place": "Aachen", "auffaelligkeiten": ["Gesandtschaft"]}},
{"circle":
{"coordinates": [49.4178160,2.8261450], "werk_id": "0011", "werk_titel": "Vita Hludovici Pii imperatoris", "quellen_id": "0012", "period_from": "817-01-01", "period_to": "817-12-31", "place": "Compiègne", "auffaelligkeiten": ["Gesandtschaft"]}},
{"circle":
{"coordinates": [50.7753455,6.0838868], "werk_id": "0011", "werk_titel": "Vita Hludovici Pii imperatoris", "quellen_id": "0012", "period_from": "817-01-01", "period_to": "817-12-31", "place": "Aachen", "auffaelligkeiten": ["Gesandtschaft"]}},
{"circle":
{"coordinates": [40.4636670,-3.7492200], "werk_id": "0011", "werk_titel": "Vita Hludovici Pii imperatoris", "quellen_id": "0014", "period_from": "822-01-01", "period_to": "822-12-31", "place": "Spanien", "auffaelligkeiten": ["Plünderung","Beute","Invasion","Zerstörung"]}},
{"circle":
{"coordinates": [47.6892240,-0.8683630], "werk_id": "0011", "werk_titel": "Vita Hludovici Pii imperatoris", "quellen_id": "0014", "period_from": "822-01-01", "period_to": "822-12-31", "place": "Segre", "auffaelligkeiten": ["Plünderung","Beute","Invasion","Zerstörung"]}},
{"circle":
{"coordinates": [42.8125260,-1.6457745], "werk_id": "0011", "werk_titel": "Vita Hludovici Pii imperatoris", "quellen_id": "0015", "period_from": "824-01-01", "period_to": "824-12-31", "place": "Pamplona", "auffaelligkeiten": ["Gefangennahme","Heeresaufgebot","Niederlage"]}},
{"circle":
{"coordinates": [37.8881751,-4.7793835], "werk_id": "0011", "werk_titel": "Vita Hludovici Pii imperatoris", "quellen_id": "0015", "period_from": "824-01-01", "period_to": "824-12-31", "place": "Cordoba", "auffaelligkeiten": ["Gefangennahme","Heeresaufgebot","Niederlage"]}},
{"circle":
{"coordinates": [50.7753455,6.0838868], "werk_id": "0011", "werk_titel": "Vita Hludovici Pii imperatoris", "quellen_id": "0016", "period_from": "826-01-01", "period_to": "826-12-31", "place": "Aachen", "auffaelligkeiten": ["Bedrohung","Aufforderung","Schutzmaßnahme"]}},
{"circle":
{"coordinates": [40.4636670,-3.7492200], "werk_id": "0011", "werk_titel": "Vita Hludovici Pii imperatoris", "quellen_id": "0016", "period_from": "826-01-01", "period_to": "826-12-31", "place": "Spanien", "auffaelligkeiten": ["Bedrohung","Aufforderung","Schutzmaßnahme"]}},
{"circle":
{"coordinates": [42.4191918,1.7928402], "werk_id": "0011", "werk_titel": "Vita Hludovici Pii imperatoris", "quellen_id": "0018", "period_from": "827-01-01", "period_to": "827-12-31", "place": "Cerdana", "auffaelligkeiten": ["Heeresaufgebot","Bedrohung","Schutzmaßnahmen","Gegenschlag","Zerstörung","Eroberung","Einnahme","Rückzug"]}},
{"circle":
{"coordinates": [38.9852121,-0.5563660], "werk_id": "0011", "werk_titel": "Vita Hludovici Pii imperatoris", "quellen_id": "0018", "period_from": "827-01-01", "period_to": "827-12-31", "place": "Valles", "auffaelligkeiten": ["Heeresaufgebot","Bedrohung","Schutzmaßnahmen","Gegenschlag","Zerstörung","Eroberung","Einnahme","Rückzug"]}},
{"circle":
{"coordinates": [41.3850639,2.1734035], "werk_id": "0011", "werk_titel": "Vita Hludovici Pii imperatoris", "quellen_id": "0018", "period_from": "827-01-01", "period_to": "827-12-31", "place": "Barcelona", "auffaelligkeiten": ["Heeresaufgebot","Bedrohung","Schutzmaßnahmen","Gegenschlag","Zerstörung","Eroberung","Einnahme","Rückzug"]}},
{"circle":
{"coordinates": [41.9794005,2.8214264], "werk_id": "0011", "werk_titel": "Vita Hludovici Pii imperatoris", "quellen_id": "0018", "period_from": "827-01-01", "period_to": "827-12-31", "place": "Gerona", "auffaelligkeiten": ["Heeresaufgebot","Bedrohung","Schutzmaßnahmen","Gegenschlag","Zerstörung","Eroberung","Einnahme","Rückzug"]}},
{"circle":
{"coordinates": [41.6488696,-0.8897421], "werk_id": "0011", "werk_titel": "Vita Hludovici Pii imperatoris", "quellen_id": "0018", "period_from": "827-01-01", "period_to": "827-12-31", "place": "Saragossa", "auffaelligkeiten": ["Heeresaufgebot","Bedrohung","Schutzmaßnahmen","Gegenschlag","Zerstörung","Eroberung","Einnahme","Rückzug"]}},
{"circle":
{"coordinates": [50.7753455,6.0838868], "werk_id": "0011", "werk_titel": "Vita Hludovici Pii imperatoris", "quellen_id": "0019", "period_from": "828-01-01", "period_to": "828-12-31", "place": "Aachen", "auffaelligkeiten": ["Berichterstattung","(Reichs-)Versammlung"]}},
{"circle":
{"coordinates": [40.4636670,-3.7492200], "werk_id": "0011", "werk_titel": "Vita Hludovici Pii imperatoris", "quellen_id": "0019", "period_from": "828-01-01", "period_to": "828-12-31", "place": "Spanien", "auffaelligkeiten": ["Berichterstattung","(Reichs-)Versammlung"]}},
{"circle":
{"coordinates": [49.3575710,6.1684260], "werk_id": "0011", "werk_titel": "Vita Hludovici Pii imperatoris", "quellen_id": "0020", "period_from": "828-01-01", "period_to": "828-12-31", "place": "Diedenhofen", "auffaelligkeiten": ["Bedrohung","Invasion","Heeresaufgebot","Schutzmaßnahmen"]}},
{"circle":
{"coordinates": [45.7640430,4.8356590], "werk_id": "0011", "werk_titel": "Vita Hludovici Pii imperatoris", "quellen_id": "0020", "period_from": "828-01-01", "period_to": "828-12-31", "place": "Lyon", "auffaelligkeiten": ["Bedrohung","Invasion","Heeresaufgebot","Schutzmaßnahmen"]}},
{"circle":
{"coordinates": [40.4636670,-3.7492200], "werk_id": "0011", "werk_titel": "Vita Hludovici Pii imperatoris", "quellen_id": "0020", "period_from": "828-01-01", "period_to": "828-12-31", "place": "Spanien", "auffaelligkeiten": ["Bedrohung","Invasion","Heeresaufgebot","Schutzmaßnahmen"]}},
{"circle":
{"coordinates": [44.7002222,-0.2995785], "werk_id": "0011", "werk_titel": "Vita Hludovici Pii imperatoris", "quellen_id": "0020", "period_from": "828-01-01", "period_to": "828-12-31", "place": "Aquitanien", "auffaelligkeiten": ["Bedrohung","Invasion","Heeresaufgebot","Schutzmaßnahmen"]}},
{"circle":
{"coordinates": [42.0396042,9.0128926], "werk_id": "0011", "werk_titel": "Vita Hludovici Pii imperatoris", "quellen_id": "0021", "period_from": "828-01-01", "period_to": "828-12-31", "place": "Korsika", "auffaelligkeiten": ["Flotte","Invasion","Kamphandlung","Schutzmaßnahme"]}},
{"circle":
{"coordinates": [-8.7831950,34.5085230], "werk_id": "0011", "werk_titel": "Vita Hludovici Pii imperatoris", "quellen_id": "0021", "period_from": "828-01-01", "period_to": "828-12-31", "place": "Afrika", "auffaelligkeiten": ["Flotte","Invasion","Kamphandlung","Schutzmaßnahme"]}},
{"circle":
{"coordinates": [37.055611,10.061305], "werk_id": "0011", "werk_titel": "Vita Hludovici Pii imperatoris", "quellen_id": "0021", "period_from": "828-01-01", "period_to": "828-12-31", "place": "Utica", "auffaelligkeiten": ["Flotte","Invasion","Kamphandlung","Schutzmaßnahme"]}},
{"circle":
{"coordinates": [36.84837212,10.32340778], "werk_id": "0011", "werk_titel": "Vita Hludovici Pii imperatoris", "quellen_id": "0021", "period_from": "828-01-01", "period_to": "828-12-31", "place": "Karthago", "auffaelligkeiten": ["Flotte","Invasion","Kamphandlung","Schutzmaßnahme"]}},
{"circle":
{"coordinates": [49.3575710,6.1684260], "werk_id": "0011", "werk_titel": "Vita Hludovici Pii imperatoris", "quellen_id": "0022", "period_from": "831-01-01", "period_to": "831-12-31", "place": "Diedenhofen", "auffaelligkeiten": ["Gesandtschaft","Geschenke","Frieden"]}},
{"circle":
{"coordinates": [42.6681804,1.0011899], "werk_id": "0011", "werk_titel": "Vita Hludovici Pii imperatoris", "quellen_id": "0001", "period_from": "778-01-01", "period_to": "778-12-31", "place": "Pyrenäen", "auffaelligkeiten": ["Bedrohung","Heeresaufgebot","Invasion"]}},
{"circle":
{"coordinates": [40.4636670,-3.7492200], "werk_id": "0011", "werk_titel": "Vita Hludovici Pii imperatoris", "quellen_id": "0001", "period_from": "778-01-01", "period_to": "778-12-31", "place": "Spanien", "auffaelligkeiten": ["Bedrohung","Heeresaufgebot","Invasion"]}},
{"circle":
{"coordinates": [43.6046520,1.4442090], "werk_id": "0011", "werk_titel": "Vita Hludovici Pii imperatoris", "quellen_id": "0002", "period_from": "790-01-01", "period_to": "790-12-31", "place": "Toulouse", "auffaelligkeiten": ["Gesandtschaft","Geschenke","Frieden"]}},
{"circle":
{"coordinates": [44.7002222,-0.2995785], "werk_id": "0011", "werk_titel": "Vita Hludovici Pii imperatoris", "quellen_id": "0002", "period_from": "790-01-01", "period_to": "790-12-31", "place": "Aquitanien", "auffaelligkeiten": ["Gesandtschaft","Geschenke","Frieden"]}},